__time,/vrpn_client_node/turtlebot7/pose/header/stamp,/vrpn_client_node/turtlebot7/pose/pose/orientation/pitch_deg,/vrpn_client_node/turtlebot7/pose/pose/orientation/roll_deg,/vrpn_client_node/turtlebot7/pose/pose/orientation/w,/vrpn_client_node/turtlebot7/pose/pose/orientation/x,/vrpn_client_node/turtlebot7/pose/pose/orientation/y,/vrpn_client_node/turtlebot7/pose/pose/orientation/yaw_deg,/vrpn_client_node/turtlebot7/pose/pose/orientation/z,/vrpn_client_node/turtlebot7/pose/pose/position/x,/vrpn_client_node/turtlebot7/pose/pose/position/y,/vrpn_client_node/turtlebot7/pose/pose/position/z
1690687175.587801,1689261204.415972,2.270194,0.985227,0.035508,-0.019493,0.009291,175.948773,0.999136,3.325287,5.879592,0.178019
1690687175.587846,1689261204.424392,2.265577,0.993788,0.035625,-0.019449,0.009366,175.935521,0.999132,3.325296,5.879583,0.178032
1690687175.587883,1689261204.432882,2.262306,0.978396,0.035504,-0.019426,0.009229,175.949037,0.999138,3.325283,5.879604,0.178042
1690687175.587910,1689261204.441030,2.271886,0.985825,0.035497,-0.019508,0.009296,175.950091,0.999136,3.325277,5.879606,0.178031
1690687175.587942,1689261204.457924,2.268920,0.990795,0.035476,-0.019480,0.009338,175.952531,0.999137,3.325292,5.879623,0.178037
1690687175.587977,1689261204.466218,2.268926,0.993530,0.035564,-0.019479,0.009364,175.942500,0.999134,3.325282,5.879631,0.178040
1690687175.588030,1689261204.474256,2.268169,0.997060,0.035512,-0.019472,0.009393,175.948591,0.999135,3.325300,5.879623,0.178034
1690687175.588059,1689261204.482640,2.259678,0.993150,0.035521,-0.019399,0.009357,175.947432,0.999137,3.325286,5.879631,0.178035
1690687175.588095,1689261204.490974,2.269568,0.995633,0.035523,-0.019484,0.009382,175.947327,0.999135,3.325294,5.879621,0.178027
1690687175.595110,1689261204.507740,2.255141,0.987611,0.035541,-0.019361,0.009308,175.944938,0.999137,3.325292,5.879617,0.178042
1690687175.603557,1689261204.516211,2.266694,0.986835,0.035567,-0.019461,0.009305,175.942044,0.999135,3.325294,5.879607,0.178031
1690687175.611997,1689261204.524547,2.261133,0.986080,0.035518,-0.019414,0.009296,175.947546,0.999137,3.325291,5.879607,0.178027
1690687175.629334,1689261204.541491,2.269427,0.972423,0.035504,-0.019490,0.009179,175.949038,0.999137,3.325285,5.879578,0.178024
1690687175.645500,1689261204.558003,2.278310,0.991233,0.035643,-0.019561,0.009348,175.933444,0.999129,3.325275,5.879584,0.178040
1690687175.653114,1689261204.565997,2.271009,0.985330,0.035590,-0.019499,0.009293,175.939456,0.999133,3.325291,5.879598,0.178040
1690687175.661919,1689261204.574316,2.265885,0.989839,0.035599,-0.019453,0.009331,175.938473,0.999133,3.325296,5.879607,0.178037
1690687175.670190,1689261204.582645,2.269139,0.993610,0.035578,-0.019481,0.009365,175.940966,0.999133,3.325283,5.879613,0.178030
1690687175.686784,1689261204.599492,2.271657,0.991128,0.035536,-0.019504,0.009343,175.945665,0.999134,3.325297,5.879614,0.178030
1690687175.695308,1689261204.607841,2.264415,1.000114,0.035611,-0.019437,0.009421,175.937275,0.999132,3.325302,5.879628,0.178035
1690687175.703191,1689261204.615952,2.265735,0.994200,0.035493,-0.019451,0.009367,175.950628,0.999137,3.325284,5.879623,0.178035
1690687175.711829,1689261204.624547,2.265622,0.993179,0.035556,-0.019450,0.009360,175.943436,0.999135,3.325298,5.879617,0.178016
1690687175.719727,1689261204.632625,2.259691,0.986642,0.035521,-0.019401,0.009300,175.947205,0.999137,3.325289,5.879600,0.178036
1690687175.728798,1689261204.641323,2.265234,0.985036,0.035537,-0.019449,0.009288,175.945424,0.999136,3.325278,5.879604,0.178046
1690687175.744784,1689261204.657593,2.266051,0.986499,0.035527,-0.019456,0.009301,175.946562,0.999136,3.325282,5.879597,0.178035
1690687175.753550,1689261204.666158,2.263688,0.995114,0.035613,-0.019432,0.009377,175.936853,0.999133,3.325281,5.879598,0.178035
1690687175.821150,1689261204.674318,2.268041,0.988893,0.035559,-0.019473,0.009323,175.942993,0.999134,3.325285,5.879580,0.178040
1690687175.897501,1689261204.707826,2.269963,0.986176,0.035482,-0.019491,0.009298,175.951748,0.999137,3.325292,5.879617,0.178029
1690687175.897566,1689261204.724221,2.262260,0.985399,0.035435,-0.019424,0.009288,175.957090,0.999140,3.325296,5.879613,0.178038
1690687175.897631,1689261204.732837,2.266127,0.993308,0.035525,-0.019455,0.009360,175.946945,0.999136,3.325287,5.879631,0.178040
1690687175.899784,1689261204.766223,2.267954,0.993419,0.035538,-0.019471,0.009362,175.945458,0.999135,3.325293,5.879609,0.178035
1690687175.899874,1689261204.790933,2.272904,0.983011,0.035505,-0.019517,0.009272,175.949161,0.999136,3.325277,5.879593,0.178035
1690687175.899913,1689261204.790982,2.271461,0.986349,0.035531,-0.019503,0.009301,175.946152,0.999135,3.325302,5.879588,0.178035
1690687175.899975,1689261204.807822,2.278152,0.990117,0.035554,-0.019560,0.009337,175.943654,0.999133,3.325287,5.879606,0.178040
1690687175.903085,1689261204.815885,2.270354,0.991476,0.035618,-0.019491,0.009347,175.936307,0.999132,3.325283,5.879613,0.178034
1690687175.912130,1689261204.824490,2.261946,0.985925,0.035581,-0.019420,0.009296,175.940324,0.999135,3.325289,5.879594,0.178034
1690687175.920555,1689261204.832907,2.269526,0.994216,0.035567,-0.019484,0.009370,175.942181,0.999133,3.325291,5.879613,0.178033
1690687175.937001,1689261204.849259,2.262230,0.994624,0.035620,-0.019420,0.009372,175.936058,0.999133,3.325305,5.879625,0.178021
1690687175.945711,1689261204.858207,2.270253,0.985853,0.035500,-0.019493,0.009296,175.949678,0.999136,3.325292,5.879627,0.178034
1690687175.953246,1689261204.866071,2.268923,0.992265,0.035476,-0.019480,0.009351,175.952568,0.999137,3.325284,5.879622,0.178026
1690687175.961986,1689261204.874642,2.266501,0.996502,0.035536,-0.019457,0.009388,175.945785,0.999135,3.325285,5.879624,0.178034
1690687175.970453,1689261204.883017,2.284779,0.995342,0.035539,-0.019617,0.009384,175.945573,0.999132,3.325288,5.879608,0.178029
1690687175.978168,1689261204.890906,2.268250,0.988051,0.035548,-0.019475,0.009316,175.944210,0.999135,3.325289,5.879589,0.178034
1690687175.995073,1689261204.907584,2.271272,0.988312,0.035545,-0.019501,0.009319,175.944636,0.999134,3.325282,5.879591,0.178014
1690687176.003703,1689261204.915917,2.267957,0.990796,0.035666,-0.019470,0.009342,175.930777,0.999130,3.325293,5.879588,0.178021
1690687176.011675,1689261204.924352,2.266034,0.983328,0.035592,-0.019456,0.009275,175.939139,0.999134,3.325283,5.879589,0.178033
1690687176.020400,1689261204.932813,2.277107,0.996553,0.035657,-0.019548,0.009394,175.931944,0.999129,3.325285,5.879596,0.178026
1690687176.029045,1689261204.940869,2.267001,0.987784,0.035529,-0.019464,0.009312,175.946435,0.999136,3.325288,5.879603,0.178030
1690687176.045279,1689261204.957835,2.271242,0.990691,0.035563,-0.019500,0.009340,175.942621,0.999134,3.325288,5.879616,0.178026
1690687176.053862,1689261204.966243,2.268719,0.987121,0.035442,-0.019480,0.009306,175.956436,0.999139,3.325288,5.879626,0.178029
1690687176.061512,1689261204.974190,2.275598,0.995142,0.035542,-0.019537,0.009379,175.945109,0.999133,3.325294,5.879629,0.178034
1690687176.069952,1689261204.982789,2.268636,1.003091,0.035587,-0.019473,0.009448,175.940063,0.999132,3.325298,5.879626,0.178020
1690687176.086943,1689261204.999236,2.275118,0.994668,0.035523,-0.019533,0.009375,175.947295,0.999134,3.325297,5.879630,0.178030
1690687176.095061,1689261205.007645,2.267413,0.993092,0.035541,-0.019466,0.009359,175.945198,0.999135,3.325291,5.879612,0.178028
1690687176.103873,1689261205.015994,2.263146,0.982515,0.035526,-0.019432,0.009265,175.946661,0.999137,3.325291,5.879601,0.178028
1690687176.112127,1689261205.024541,2.265862,0.985329,0.035546,-0.019455,0.009291,175.944368,0.999135,3.325295,5.879592,0.178034
1690687176.119832,1689261205.032565,2.276431,0.989023,0.035585,-0.019545,0.009327,175.940076,0.999132,3.325279,5.879599,0.178028
1690687176.136830,1689261205.049534,2.266114,0.989857,0.035568,-0.019455,0.009331,175.942027,0.999134,3.325293,5.879595,0.178026
1690687176.308300,1689261205.157992,2.275622,1.001057,0.035535,-0.019535,0.009431,175.946072,0.999133,3.325290,5.879626,0.178019
1690687176.308413,1689261205.158053,2.272883,0.992085,0.035447,-0.019515,0.009350,175.956004,0.999137,3.325286,5.879638,0.178019
1690687176.308456,1689261205.158133,2.274095,0.986411,0.035609,-0.019526,0.009304,175.937249,0.999132,3.325285,5.879592,0.178029
1690687176.308526,1689261205.165978,2.267486,0.985920,0.035622,-0.019468,0.009298,175.935675,0.999132,3.325284,5.879586,0.178026
1690687176.308558,1689261205.174578,2.267794,0.982726,0.035555,-0.019472,0.009269,175.943339,0.999135,3.325290,5.879601,0.178029
1690687176.308608,1689261205.182636,2.264129,0.980983,0.035528,-0.019441,0.009252,175.946414,0.999137,3.325296,5.879603,0.178042
1690687176.308679,1689261205.190947,2.271023,0.993304,0.035557,-0.019497,0.009362,175.943382,0.999134,3.325286,5.879617,0.178041
1690687176.308737,1689261205.207869,2.274954,0.993527,0.035571,-0.019531,0.009366,175.941733,0.999132,3.325288,5.879620,0.178021
1690687176.308804,1689261205.216272,2.276172,1.002450,0.035577,-0.019539,0.009444,175.941252,0.999131,3.325289,5.879629,0.178029
1690687176.311167,1689261205.224254,2.272628,0.993677,0.035487,-0.019512,0.009365,175.951434,0.999136,3.325297,5.879618,0.178021
1690687176.319987,1689261205.232880,2.270054,0.999296,0.035608,-0.019486,0.009415,175.937645,0.999132,3.325292,5.879631,0.178012
1690687176.328171,1689261205.241019,2.271360,0.995053,0.035533,-0.019500,0.009377,175.946080,0.999134,3.325301,5.879615,0.178032
1690687176.345639,1689261205.257662,2.264890,0.995117,0.035609,-0.019443,0.009377,175.937383,0.999133,3.325294,5.879610,0.178023
1690687176.353768,1689261205.265996,2.270422,0.992377,0.035595,-0.019492,0.009355,175.938906,0.999132,3.325297,5.879610,0.178015
1690687176.361770,1689261205.274550,2.269628,0.994350,0.035596,-0.019484,0.009372,175.938857,0.999132,3.325284,5.879602,0.178038
1690687176.369869,1689261205.282624,2.276074,0.984868,0.035495,-0.019544,0.009289,175.950277,0.999135,3.325299,5.879595,0.178036
1690687176.387003,1689261205.299552,2.272486,0.991788,0.035618,-0.019510,0.009351,175.936382,0.999131,3.325287,5.879591,0.178031
1690687176.395128,1689261205.307891,2.263288,0.984466,0.035488,-0.019433,0.009282,175.950976,0.999138,3.325282,5.879602,0.178029
1690687176.403306,1689261205.315993,2.268494,0.994031,0.035540,-0.019475,0.009368,175.945332,0.999135,3.325280,5.879599,0.178037
1690687176.411829,1689261205.324336,2.268172,0.992147,0.035573,-0.019473,0.009352,175.941410,0.999134,3.325284,5.879624,0.178036
1690687176.420106,1689261205.332871,2.269638,0.995023,0.035551,-0.019485,0.009377,175.944050,0.999134,3.325302,5.879609,0.178014
1690687176.436772,1689261205.349359,2.262141,0.989634,0.035426,-0.019422,0.009325,175.958218,0.999140,3.325291,5.879630,0.178035
1690687176.445220,1689261205.357665,2.268516,0.991082,0.035488,-0.019477,0.009341,175.951191,0.999137,3.325278,5.879620,0.178039
1690687176.453657,1689261205.366171,2.270782,0.993956,0.035451,-0.019496,0.009366,175.955477,0.999137,3.325287,5.879624,0.178020
1690687176.461505,1689261205.374403,2.270623,0.995561,0.035593,-0.019493,0.009383,175.939237,0.999132,3.325296,5.879621,0.178028
1690687176.469421,1689261205.382560,2.271917,0.989510,0.035546,-0.019506,0.009329,175.944532,0.999134,3.325294,5.879611,0.178031
1690687176.478127,1689261205.390960,2.264692,0.981512,0.035582,-0.019445,0.009258,175.940239,0.999135,3.325305,5.879587,0.178038
1690687176.495092,1689261205.407852,2.267918,0.985417,0.035586,-0.019472,0.009293,175.939853,0.999134,3.325295,5.879600,0.178041
1690687176.503505,1689261205.416203,2.275013,0.992093,0.035563,-0.019532,0.009353,175.942618,0.999133,3.325300,5.879591,0.178015
1690687176.512491,1689261205.424532,2.273506,0.989555,0.035561,-0.019520,0.009331,175.942873,0.999133,3.325288,5.879601,0.178028
1690687176.528473,1689261205.441189,2.256197,0.975254,0.035529,-0.019374,0.009200,175.946104,0.999139,3.325299,5.879586,0.178037
1690687176.536716,1689261205.449337,2.265919,0.995981,0.035643,-0.019451,0.009386,175.933509,0.999131,3.325289,5.879609,0.178028
1690687176.544806,1689261205.457674,2.267074,0.993249,0.035541,-0.019463,0.009360,175.945194,0.999135,3.325301,5.879616,0.178038
1690687176.553361,1689261205.466215,2.264715,0.989040,0.035434,-0.019445,0.009321,175.957282,0.999139,3.325302,5.879617,0.178026
1690687176.561461,1689261205.474365,2.274509,0.994104,0.035516,-0.019528,0.009370,175.948091,0.999134,3.325286,5.879638,0.178019
1690687176.569838,1689261205.482625,2.264642,0.992247,0.035492,-0.019443,0.009350,175.950728,0.999137,3.325289,5.879626,0.178029
1690687176.586293,1689261205.499310,2.267725,0.995092,0.035551,-0.019468,0.009377,175.944025,0.999134,3.325285,5.879623,0.178034
1690687176.594495,1689261205.507550,2.272595,0.992718,0.035632,-0.019510,0.009359,175.934717,0.999131,3.325293,5.879609,0.178027
1690687176.602959,1689261205.515894,2.272415,0.990550,0.035572,-0.019510,0.009339,175.941600,0.999133,3.325300,5.879600,0.178032
1690687176.611701,1689261205.524547,2.264005,0.977424,0.035443,-0.019442,0.009220,175.956000,0.999140,3.325295,5.879591,0.178038
1690687176.620130,1689261205.532896,2.271464,0.986250,0.035631,-0.019503,0.009302,175.934768,0.999131,3.325285,5.879574,0.178021
1690687176.637476,1689261205.549579,2.266843,0.989263,0.035515,-0.019462,0.009325,175.948037,0.999136,3.325293,5.879601,0.178024
1690687176.645335,1689261205.558036,2.268604,0.993373,0.035602,-0.019476,0.009363,175.938195,0.999132,3.325290,5.879592,0.178034
1690687176.653407,1689261205.566206,2.270165,0.997628,0.035574,-0.019488,0.009400,175.941445,0.999133,3.325286,5.879617,0.178034
1690687176.661665,1689261205.574339,2.263136,0.984905,0.035536,-0.019431,0.009286,175.945574,0.999136,3.325287,5.879618,0.178038
1690687176.669757,1689261205.582625,2.275788,0.996475,0.035544,-0.019538,0.009391,175.944962,0.999133,3.325292,5.879629,0.178032
1690687176.678941,1689261205.591272,2.269217,0.994089,0.035559,-0.019481,0.009369,175.943114,0.999134,3.325295,5.879621,0.178021
1690687176.695118,1689261205.607872,2.269393,0.989237,0.035395,-0.019486,0.009323,175.961834,0.999140,3.325282,5.879619,0.178036
1690687176.703344,1689261205.616199,2.273995,0.996176,0.035529,-0.019523,0.009388,175.946656,0.999134,3.325289,5.879619,0.178029
1690687176.711717,1689261205.624528,2.268636,0.992513,0.035489,-0.019477,0.009353,175.951066,0.999137,3.325301,5.879602,0.178035
1690687176.719473,1689261205.632612,2.263908,0.986376,0.035534,-0.019438,0.009299,175.945831,0.999136,3.325293,5.879604,0.178031
1690687176.737303,1689261205.649540,2.277984,0.994876,0.035584,-0.019557,0.009379,175.940333,0.999131,3.325288,5.879591,0.178026
1690687176.745038,1689261205.657886,2.268434,0.979919,0.035485,-0.019479,0.009243,175.951274,0.999138,3.325279,5.879585,0.178035
1690687176.753196,1689261205.665917,2.266158,0.984451,0.035522,-0.019458,0.009283,175.947175,0.999136,3.325293,5.879595,0.178033
1690687176.761551,1689261205.674335,2.263082,0.978752,0.035515,-0.019433,0.009232,175.947767,0.999138,3.325279,5.879598,0.178038
1690687176.778338,1689261205.690968,2.266792,0.988215,0.035602,-0.019461,0.009318,175.938014,0.999133,3.325289,5.879592,0.178029
1690687176.778491,1689261205.691022,2.264991,0.987857,0.035531,-0.019447,0.009313,175.946119,0.999136,3.325293,5.879611,0.178036
1690687176.794984,1689261205.707847,2.274625,0.989491,0.035485,-0.019530,0.009329,175.951563,0.999136,3.325289,5.879614,0.178035
1690687176.803396,1689261205.716314,2.271078,0.999410,0.035548,-0.019496,0.009415,175.944505,0.999133,3.325280,5.879630,0.178030
1690687176.811601,1689261205.724400,2.277455,1.002653,0.035560,-0.019550,0.009446,175.943221,0.999132,3.325288,5.879629,0.178035
1690687176.828855,1689261205.741549,2.268960,0.991762,0.035517,-0.019480,0.009347,175.947929,0.999136,3.325290,5.879621,0.178028
1690687176.829270,1689261205.741611,2.270929,0.987805,0.035472,-0.019499,0.009313,175.952973,0.999137,3.325295,5.879616,0.178031
1690687176.844831,1689261205.757710,2.262147,0.990391,0.035562,-0.019421,0.009334,175.942589,0.999135,3.325290,5.879607,0.178025
1690687176.853048,1689261205.766023,2.272878,0.987132,0.035549,-0.019515,0.009309,175.944209,0.999134,3.325282,5.879599,0.178034
1690687176.861552,1689261205.774561,2.267432,0.988858,0.035631,-0.019467,0.009324,175.934726,0.999132,3.325295,5.879576,0.178025
1690687176.878040,1689261205.791020,2.270905,0.990387,0.035613,-0.019497,0.009338,175.936897,0.999132,3.325285,5.879592,0.178033
1690687176.886803,1689261205.799694,2.271532,0.986060,0.035585,-0.019504,0.009300,175.939979,0.999133,3.325280,5.879598,0.178030
1690687176.894924,1689261205.807871,2.266616,0.981966,0.035508,-0.019463,0.009261,175.948711,0.999137,3.325284,5.879598,0.178037
1690687176.903400,1689261205.816284,2.260909,0.985143,0.035536,-0.019412,0.009288,175.945473,0.999137,3.325290,5.879602,0.178028
1690687176.911967,1689261205.824645,2.275307,0.994800,0.035582,-0.019534,0.009377,175.940514,0.999132,3.325289,5.879613,0.178032
1690687176.921033,1689261205.832886,2.264355,0.986050,0.035443,-0.019442,0.009295,175.956208,0.999139,3.325289,5.879621,0.178031
1690687176.937235,1689261205.849422,2.274178,0.997764,0.035558,-0.019523,0.009402,175.943313,0.999133,3.325299,5.879621,0.178032
1690687176.944537,1689261205.857596,2.270623,0.991587,0.035450,-0.019495,0.009345,175.955523,0.999138,3.325290,5.879617,0.178027
1690687176.953303,1689261205.866039,2.275882,0.993178,0.035462,-0.019541,0.009361,175.954280,0.999136,3.325282,5.879618,0.178018
1690687176.961559,1689261205.874404,2.264556,0.987487,0.035483,-0.019443,0.009308,175.951714,0.999138,3.325301,5.879606,0.178032
1690687176.970122,1689261205.882787,2.273733,0.992070,0.035508,-0.019522,0.009351,175.948979,0.999135,3.325286,5.879602,0.178034
1690687176.986362,1689261205.899307,2.268670,0.986710,0.035524,-0.019479,0.009304,175.947015,0.999136,3.325299,5.879583,0.178029
1690687176.994776,1689261205.907628,2.273435,0.984650,0.035542,-0.019521,0.009287,175.944942,0.999134,3.325281,5.879589,0.178025
1690687177.003273,1689261205.916187,2.264792,0.987264,0.035566,-0.019445,0.009308,175.942180,0.999135,3.325288,5.879594,0.178035
1690687177.011567,1689261205.924531,2.276244,0.992460,0.035636,-0.019542,0.009358,175.934316,0.999130,3.325285,5.879592,0.178017
1690687177.019929,1689261205.932888,2.264811,0.983312,0.035475,-0.019447,0.009272,175.952542,0.999138,3.325291,5.879593,0.178032
1690687177.027959,1689261205.940986,2.270184,0.990652,0.035490,-0.019491,0.009338,175.950926,0.999136,3.325300,5.879612,0.178036
1690687177.045511,1689261205.957894,2.264131,0.991904,0.035541,-0.019438,0.009348,175.945103,0.999135,3.325291,5.879609,0.178013
1690687177.053311,1689261205.966396,2.270377,0.993786,0.035503,-0.019492,0.009365,175.949542,0.999136,3.325304,5.879621,0.178029
1690687177.062299,1689261205.974767,2.267081,0.986208,0.035420,-0.019466,0.009297,175.958943,0.999140,3.325295,5.879633,0.178033
1690687177.069339,1689261205.982554,2.266202,0.994114,0.035526,-0.019455,0.009367,175.946866,0.999135,3.325290,5.879623,0.178025
1690687177.078318,1689261205.990946,2.268766,0.993818,0.035596,-0.019477,0.009367,175.938846,0.999133,3.325287,5.879616,0.178031
1690687177.094681,1689261206.007578,2.269349,0.990491,0.035542,-0.019484,0.009337,175.945025,0.999135,3.325283,5.879604,0.178031
1690687177.102916,1689261206.016008,2.270498,0.984185,0.035474,-0.019496,0.009281,175.952624,0.999137,3.325293,5.879599,0.178032
1690687177.111506,1689261206.024541,2.271852,0.985440,0.035537,-0.019507,0.009294,175.945450,0.999135,3.325283,5.879599,0.178032
1690687177.119763,1689261206.032821,2.270730,0.988185,0.035576,-0.019496,0.009318,175.941075,0.999133,3.325288,5.879589,0.178020
1690687177.136973,1689261206.049689,2.269069,0.991621,0.035579,-0.019480,0.009348,175.940790,0.999133,3.325288,5.879593,0.178027
1690687177.144999,1689261206.057885,2.268739,0.977489,0.035468,-0.019483,0.009222,175.953248,0.999138,3.325282,5.879610,0.178048
1690687177.152995,1689261206.065996,2.269957,0.993034,0.035557,-0.019488,0.009360,175.943294,0.999134,3.325276,5.879603,0.178037
1690687177.161289,1689261206.074335,2.261589,0.990813,0.035587,-0.019415,0.009338,175.939819,0.999134,3.325306,5.879617,0.178020
1690687177.169589,1689261206.082632,2.265719,0.993430,0.035527,-0.019451,0.009361,175.946774,0.999136,3.325296,5.879617,0.178025
1690687177.186525,1689261206.099303,2.266190,0.991073,0.035515,-0.019456,0.009341,175.948102,0.999136,3.325287,5.879622,0.178030
1690687177.194685,1689261206.107588,2.266900,0.996999,0.035538,-0.019460,0.009393,175.945524,0.999135,3.325289,5.879622,0.178026
1690687177.203116,1689261206.115990,2.271704,0.998518,0.035575,-0.019501,0.009408,175.941360,0.999132,3.325277,5.879624,0.178044
1690687177.212037,1689261206.124915,2.267785,0.992961,0.035497,-0.019470,0.009357,175.950138,0.999136,3.325290,5.879607,0.178024
1690687177.219465,1689261206.132564,2.269923,0.992422,0.035613,-0.019487,0.009355,175.936924,0.999132,3.325285,5.879595,0.178034
1690687177.228297,1689261206.141274,2.269714,0.985551,0.035550,-0.019488,0.009294,175.944008,0.999135,3.325281,5.879590,0.178026
1690687177.245214,1689261206.157875,2.267936,0.990513,0.035574,-0.019471,0.009337,175.941327,0.999134,3.325293,5.879579,0.178032
1690687177.253798,1689261206.165922,2.262399,0.985324,0.035502,-0.019425,0.009289,175.949420,0.999138,3.325284,5.879587,0.178033
1690687177.261484,1689261206.174547,2.269341,0.988800,0.035572,-0.019484,0.009323,175.941578,0.999134,3.325286,5.879601,0.178043
1690687177.270969,1689261206.183242,2.270314,0.992184,0.035537,-0.019492,0.009352,175.945607,0.999134,3.325271,5.879600,0.178045
1690687177.277839,1689261206.190948,2.265208,0.990464,0.035531,-0.019448,0.009335,175.946174,0.999136,3.325298,5.879609,0.178032
1690687177.295286,1689261206.207827,2.266870,0.985347,0.035477,-0.019464,0.009290,175.952341,0.999138,3.325289,5.879608,0.178047
1690687177.302830,1689261206.215893,2.270242,0.996934,0.035581,-0.019489,0.009394,175.940671,0.999133,3.325293,5.879609,0.178033
1690687177.311448,1689261206.224536,2.276087,0.996654,0.035476,-0.019541,0.009392,175.952772,0.999135,3.325285,5.879623,0.178040
1690687177.319878,1689261206.232649,2.272318,0.996924,0.035589,-0.019507,0.009395,175.939799,0.999132,3.325283,5.879618,0.178039
1690687177.328411,1689261206.240998,2.273648,0.989768,0.035524,-0.019522,0.009332,175.947063,0.999135,3.325285,5.879618,0.178049
1690687177.345087,1689261206.257666,2.263829,0.990760,0.035511,-0.019436,0.009337,175.948543,0.999137,3.325281,5.879603,0.178039
1690687177.353323,1689261206.265982,2.268939,0.987104,0.035566,-0.019481,0.009308,175.942224,0.999134,3.325279,5.879592,0.178033
1690687177.361742,1689261206.274330,2.271614,0.984236,0.035527,-0.019505,0.009283,175.946565,0.999135,3.325290,5.879578,0.178026
1690687177.369917,1689261206.282710,2.265181,0.988740,0.035571,-0.019448,0.009321,175.941575,0.999134,3.325282,5.879586,0.178028
1690687177.386966,1689261206.299666,2.276407,0.991417,0.035566,-0.019545,0.009348,175.942357,0.999133,3.325272,5.879585,0.178031
1690687177.394818,1689261206.307878,2.267258,0.987371,0.035487,-0.019467,0.009308,175.951253,0.999137,3.325277,5.879603,0.178023
1690687177.403085,1689261206.315979,2.265577,0.989181,0.035546,-0.019451,0.009325,175.944475,0.999135,3.325283,5.879605,0.178029
1690687177.411169,1689261206.324282,2.271464,0.994014,0.035561,-0.019501,0.009369,175.942850,0.999133,3.325292,5.879613,0.178032
1690687177.419788,1689261206.332868,2.268043,0.997713,0.035577,-0.019470,0.009400,175.941075,0.999133,3.325274,5.879620,0.178037
1690687177.436311,1689261206.349303,2.278501,0.994900,0.035567,-0.019562,0.009379,175.942338,0.999132,3.325281,5.879625,0.178038
1690687177.444777,1689261206.357876,2.267047,0.989009,0.035478,-0.019465,0.009322,175.952297,0.999137,3.325285,5.879615,0.178026
1690687177.453136,1689261206.366230,2.271126,0.983429,0.035418,-0.019502,0.009274,175.959042,0.999139,3.325274,5.879622,0.178028
1690687177.461185,1689261206.374357,2.274555,0.993379,0.035555,-0.019528,0.009364,175.943549,0.999133,3.325284,5.879598,0.178029
1690687177.470315,1689261206.383312,2.270539,0.988567,0.035520,-0.019495,0.009320,175.947546,0.999135,3.325280,5.879587,0.178041
1690687177.478314,1689261206.391387,2.271422,0.995531,0.035620,-0.019499,0.009383,175.936200,0.999131,3.325299,5.879583,0.178013
1690687177.494821,1689261206.407915,2.268715,0.983841,0.035542,-0.019480,0.009279,175.944838,0.999135,3.325284,5.879581,0.178035
1690687177.502564,1689261206.415923,2.265210,0.987810,0.035559,-0.019448,0.009313,175.942920,0.999135,3.325296,5.879575,0.178038
1690687177.511489,1689261206.424554,2.268496,0.983675,0.035533,-0.019478,0.009277,175.945919,0.999136,3.325275,5.879595,0.178048
1690687177.519791,1689261206.432886,2.272850,1.001020,0.035654,-0.019510,0.009432,175.932412,0.999129,3.325294,5.879607,0.178017
1690687177.528218,1689261206.440984,2.271333,0.992623,0.035548,-0.019500,0.009356,175.944350,0.999134,3.325289,5.879609,0.178038
1690687177.545413,1689261206.457957,2.269954,0.996736,0.035567,-0.019487,0.009392,175.942241,0.999133,3.325295,5.879611,0.178036
1690687177.553387,1689261206.466247,2.271602,0.987765,0.035516,-0.019504,0.009313,175.947896,0.999135,3.325291,5.879622,0.178037
1690687177.560913,1689261206.474263,2.262714,0.996836,0.035597,-0.019423,0.009391,175.938743,0.999133,3.325292,5.879614,0.178025
1690687177.569484,1689261206.482708,2.274128,0.991478,0.035513,-0.019525,0.009347,175.948400,0.999135,3.325284,5.879631,0.178047
1690687177.578171,1689261206.491303,2.273484,0.999265,0.035627,-0.019516,0.009416,175.935447,0.999130,3.325284,5.879615,0.178045
1690687177.594512,1689261206.507643,2.278241,0.986753,0.035464,-0.019563,0.009306,175.953995,0.999136,3.325293,5.879599,0.178028
1690687177.603109,1689261206.516215,2.276289,0.992736,0.035536,-0.019544,0.009359,175.945797,0.999134,3.325286,5.879600,0.178027
1690687177.611759,1689261206.524544,2.273944,0.987225,0.035581,-0.019524,0.009311,175.940540,0.999133,3.325279,5.879589,0.178037
1690687177.620105,1689261206.532874,2.272293,0.989585,0.035584,-0.019509,0.009331,175.940170,0.999133,3.325291,5.879591,0.178042
1690687177.638047,1689261206.549551,2.274670,0.993898,0.035605,-0.019528,0.009370,175.937874,0.999131,3.325284,5.879591,0.178034
1690687177.645577,1689261206.557880,2.268025,0.988659,0.035580,-0.019472,0.009321,175.940600,0.999134,3.325289,5.879602,0.178028
1690687177.653109,1689261206.566005,2.265512,0.991133,0.035559,-0.019450,0.009342,175.943078,0.999135,3.325288,5.879622,0.178034
1690687177.661142,1689261206.574231,2.273996,1.003319,0.035624,-0.019519,0.009452,175.935854,0.999130,3.325302,5.879619,0.178037
1690687177.669939,1689261206.582772,2.273000,0.993839,0.035486,-0.019515,0.009366,175.951464,0.999136,3.325284,5.879629,0.178047
1690687177.678452,1689261206.591274,2.263442,0.987021,0.035480,-0.019434,0.009304,175.951941,0.999138,3.325293,5.879631,0.178033
1690687177.695297,1689261206.607891,2.269536,0.994451,0.035516,-0.019484,0.009371,175.948081,0.999135,3.325299,5.879623,0.178020
1690687177.703647,1689261206.616393,2.272271,0.994068,0.035575,-0.019508,0.009370,175.941335,0.999133,3.325295,5.879612,0.178020
1690687177.711651,1689261206.624534,2.270487,0.996153,0.035605,-0.019491,0.009388,175.937928,0.999132,3.325287,5.879612,0.178040
1690687177.720029,1689261206.632879,2.268639,0.985753,0.035508,-0.019479,0.009295,175.948819,0.999136,3.325288,5.879593,0.178035
1690687177.736663,1689261206.649549,2.271354,0.989775,0.035581,-0.019501,0.009332,175.940562,0.999133,3.325281,5.879599,0.178039
1690687177.745291,1689261206.657885,2.272037,0.992748,0.035594,-0.019506,0.009359,175.939061,0.999132,3.325294,5.879592,0.178036
1690687177.752837,1689261206.665905,2.269404,0.987162,0.035603,-0.019485,0.009309,175.937887,0.999133,3.325286,5.879589,0.178032
1690687177.761271,1689261206.674389,2.265671,0.983172,0.035499,-0.019454,0.009271,175.949808,0.999137,3.325289,5.879601,0.178033
1690687177.769369,1689261206.682720,2.276110,1.000924,0.035628,-0.019539,0.009432,175.935436,0.999130,3.325284,5.879611,0.178021
1690687177.777737,1689261206.690984,2.271334,0.997628,0.035558,-0.019499,0.009400,175.943270,0.999133,3.325292,5.879611,0.178028
1690687177.794731,1689261206.707875,2.266445,1.002241,0.035600,-0.019454,0.009440,175.938583,0.999132,3.325301,5.879617,0.178018
1690687177.803061,1689261206.716307,2.272303,1.000007,0.035569,-0.019506,0.009421,175.942076,0.999132,3.325271,5.879634,0.178032
1690687177.810784,1689261206.724213,2.271439,0.993287,0.035487,-0.019502,0.009361,175.951388,0.999136,3.325295,5.879629,0.178030
1690687177.819586,1689261206.732678,2.272547,0.999388,0.035589,-0.019508,0.009416,175.939829,0.999132,3.325292,5.879623,0.178037
1690687177.828735,1689261206.741352,2.276368,1.001082,0.035609,-0.019541,0.009433,175.937589,0.999130,3.325279,5.879613,0.178032
1690687177.845527,1689261206.757636,2.268831,0.980191,0.035431,-0.019483,0.009245,175.957471,0.999139,3.325281,5.879610,0.178035
1690687177.854149,1689261206.766235,2.272302,0.992345,0.035579,-0.019508,0.009355,175.940770,0.999133,3.325297,5.879596,0.178029
1690687177.861780,1689261206.774589,2.273634,0.994757,0.035632,-0.019519,0.009377,175.934790,0.999130,3.325285,5.879592,0.178029
1690687177.869779,1689261206.782635,2.270057,0.982711,0.035539,-0.019492,0.009269,175.945171,0.999135,3.325278,5.879594,0.178036
1690687177.877971,1689261206.790897,2.269363,0.982890,0.035503,-0.019486,0.009270,175.949281,0.999137,3.325287,5.879601,0.178035
1690687177.895138,1689261206.807862,2.264865,0.993681,0.035567,-0.019443,0.009364,175.942155,0.999134,3.325285,5.879607,0.178032
1690687177.903231,1689261206.816000,2.269827,0.987967,0.035506,-0.019489,0.009314,175.949058,0.999136,3.325279,5.879620,0.178041
1690687177.914543,1689261206.824603,2.258348,0.987039,0.035514,-0.019389,0.009303,175.948101,0.999138,3.325299,5.879618,0.178030
1690687177.919946,1689261206.832870,2.273517,0.999465,0.035584,-0.019517,0.009417,175.940353,0.999132,3.325294,5.879621,0.178017
1690687177.928119,1689261206.841027,2.273468,0.990693,0.035502,-0.019520,0.009339,175.949620,0.999135,3.325285,5.879625,0.178036
1690687177.945655,1689261206.857883,2.268651,0.995041,0.035531,-0.019476,0.009376,175.946324,0.999135,3.325285,5.879623,0.178024
1690687177.953273,1689261206.866221,2.268432,0.985243,0.035485,-0.019478,0.009290,175.951394,0.999137,3.325296,5.879615,0.178024
1690687177.961629,1689261206.874536,2.271935,0.991237,0.035527,-0.019506,0.009344,175.946788,0.999135,3.325272,5.879618,0.178037
1690687177.969147,1689261206.882565,2.266547,0.989495,0.035528,-0.019460,0.009327,175.946607,0.999136,3.325294,5.879589,0.178023
1690687177.977804,1689261206.890942,2.266012,0.991636,0.035546,-0.019454,0.009346,175.944543,0.999135,3.325287,5.879595,0.178029
1690687177.994741,1689261206.907618,2.259939,0.983376,0.035556,-0.019404,0.009272,175.943173,0.999136,3.325278,5.879593,0.178035
1690687178.002997,1689261206.915947,2.269431,0.987157,0.035599,-0.019485,0.009309,175.938437,0.999133,3.325285,5.879608,0.178026
1690687178.011347,1689261206.924514,2.267384,0.989255,0.035518,-0.019467,0.009325,175.947741,0.999136,3.325279,5.879604,0.178026
1690687178.019945,1689261206.932858,2.264709,0.988431,0.035502,-0.019444,0.009317,175.949548,0.999137,3.325284,5.879612,0.178035
1690687178.027780,1689261206.940878,2.269766,0.990707,0.035517,-0.019487,0.009339,175.947842,0.999135,3.325296,5.879627,0.178030
1690687178.045130,1689261206.958024,2.268519,0.993591,0.035542,-0.019475,0.009364,175.945088,0.999135,3.325288,5.879633,0.178031
1690687178.053361,1689261206.966213,2.268230,0.996280,0.035531,-0.019472,0.009387,175.946406,0.999135,3.325289,5.879618,0.178013
1690687178.061850,1689261206.974380,2.269670,0.994356,0.035516,-0.019485,0.009370,175.948103,0.999135,3.325283,5.879621,0.178016
1690687178.069483,1689261206.982549,2.269021,1.001436,0.035599,-0.019477,0.009433,175.938628,0.999132,3.325289,5.879619,0.178037
1690687178.078146,1689261206.991002,2.267044,0.990093,0.035560,-0.019463,0.009333,175.942851,0.999134,3.325281,5.879623,0.178027
1690687178.094971,1689261207.007632,2.263329,0.985723,0.035531,-0.019433,0.009293,175.946063,0.999136,3.325285,5.879603,0.178034
1690687178.103163,1689261207.015896,2.265424,0.990926,0.035550,-0.019449,0.009340,175.944072,0.999135,3.325287,5.879598,0.178037
1690687178.111902,1689261207.024542,2.263929,0.978531,0.035469,-0.019441,0.009230,175.953106,0.999139,3.325276,5.879593,0.178036
1690687178.120071,1689261207.032871,2.271481,0.993771,0.035638,-0.019500,0.009368,175.934056,0.999131,3.325293,5.879590,0.178025
1690687178.136836,1689261207.049544,2.267772,0.984822,0.035536,-0.019472,0.009287,175.945595,0.999136,3.325280,5.879594,0.178033
1690687178.145232,1689261207.057901,2.272278,0.997403,0.035661,-0.019506,0.009400,175.931448,0.999129,3.325279,5.879613,0.178016
1690687178.153279,1689261207.065986,2.268927,0.983542,0.035508,-0.019482,0.009276,175.948807,0.999136,3.325287,5.879619,0.178022
1690687178.161504,1689261207.074376,2.265382,0.996815,0.035464,-0.019448,0.009389,175.953999,0.999138,3.325293,5.879622,0.178017
1690687178.169502,1689261207.082649,2.268443,0.996235,0.035557,-0.019474,0.009387,175.943398,0.999134,3.325297,5.879617,0.178020
1690687178.177789,1689261207.090993,2.265220,0.993670,0.035506,-0.019447,0.009363,175.949209,0.999136,3.325301,5.879616,0.178033
1690687178.194791,1689261207.107892,2.269680,0.991557,0.035466,-0.019487,0.009345,175.953703,0.999137,3.325284,5.879619,0.178033
1690687178.202956,1689261207.116233,2.268237,0.989289,0.035528,-0.019474,0.009326,175.946572,0.999135,3.325283,5.879615,0.178028
1690687178.211195,1689261207.124541,2.268909,0.983941,0.035522,-0.019482,0.009279,175.947122,0.999136,3.325288,5.879607,0.178035
1690687178.219484,1689261207.132597,2.260580,0.980248,0.035424,-0.019411,0.009243,175.958317,0.999141,3.325290,5.879598,0.178023
1690687178.227846,1689261207.140880,2.269024,0.984873,0.035561,-0.019482,0.009288,175.942693,0.999134,3.325271,5.879596,0.178041
1690687178.245085,1689261207.157714,2.264505,0.984467,0.035593,-0.019443,0.009284,175.938973,0.999134,3.325291,5.879589,0.178026
1690687178.253643,1689261207.165963,2.277087,0.991412,0.035559,-0.019551,0.009348,175.943119,0.999133,3.325278,5.879589,0.178037
1690687178.261944,1689261207.174594,2.269305,0.991673,0.035603,-0.019482,0.009349,175.938010,0.999132,3.325280,5.879609,0.178019
1690687178.278730,1689261207.191277,2.269883,0.985059,0.035494,-0.019490,0.009289,175.950427,0.999137,3.325280,5.879614,0.178037
1690687178.279054,1689261207.191329,2.271324,0.995981,0.035566,-0.019499,0.009386,175.942329,0.999133,3.325288,5.879618,0.178021
1690687178.295552,1689261207.207878,2.269279,0.988496,0.035459,-0.019484,0.009318,175.954486,0.999138,3.325284,5.879630,0.178030
1690687178.303419,1689261207.216217,2.269352,1.003891,0.035632,-0.019479,0.009456,175.934975,0.999130,3.325284,5.879638,0.178029
1690687178.311902,1689261207.224411,2.268622,0.996428,0.035492,-0.019476,0.009388,175.950844,0.999136,3.325288,5.879623,0.178021
1690687178.319937,1689261207.232704,2.270029,0.991203,0.035515,-0.019490,0.009343,175.948132,0.999135,3.325285,5.879628,0.178033
1690687178.337047,1689261207.249517,2.272279,0.991896,0.035526,-0.019509,0.009350,175.946868,0.999135,3.325288,5.879615,0.178023
1690687178.344558,1689261207.257558,2.263297,0.990522,0.035605,-0.019430,0.009337,175.937766,0.999133,3.325287,5.879602,0.178020
1690687178.353236,1689261207.265955,2.271017,0.985341,0.035514,-0.019500,0.009292,175.948134,0.999136,3.325274,5.879601,0.178036
1690687178.361439,1689261207.274331,2.264881,0.981508,0.035557,-0.019447,0.009258,175.943046,0.999136,3.325292,5.879596,0.178037
1690687178.369291,1689261207.282635,2.266148,0.986584,0.035535,-0.019457,0.009302,175.945714,0.999136,3.325280,5.879598,0.178024
1690687178.385967,1689261207.299228,2.259957,0.985988,0.035576,-0.019403,0.009296,175.940906,0.999135,3.325268,5.879604,0.178035
1690687178.394639,1689261207.307886,2.266599,0.983366,0.035555,-0.019462,0.009274,175.943374,0.999135,3.325282,5.879625,0.178021
1690687178.402757,1689261207.315988,2.269944,0.983037,0.035429,-0.019492,0.009270,175.957872,0.999139,3.325293,5.879618,0.178031
1690687178.410784,1689261207.324227,2.265573,0.989859,0.035460,-0.019452,0.009329,175.954379,0.999138,3.325288,5.879627,0.178022
1690687178.419501,1689261207.332625,2.270197,0.990913,0.035503,-0.019491,0.009340,175.949485,0.999136,3.325286,5.879623,0.178033
1690687178.428300,1689261207.341237,2.277902,0.993118,0.035546,-0.019557,0.009363,175.944628,0.999133,3.325286,5.879622,0.178019
1690687178.445018,1689261207.357832,2.274526,0.997146,0.035616,-0.019526,0.009398,175.936707,0.999131,3.325280,5.879627,0.178032
1690687178.453598,1689261207.366487,2.269558,0.988127,0.035484,-0.019487,0.009315,175.951655,0.999137,3.325284,5.879617,0.178039
1690687178.461610,1689261207.374568,2.271587,0.992631,0.035526,-0.019503,0.009356,175.946840,0.999135,3.325284,5.879606,0.178035
1690687178.469388,1689261207.382545,2.275661,0.986935,0.035488,-0.019540,0.009307,175.951197,0.999136,3.325277,5.879608,0.178036
1690687178.487147,1689261207.399285,2.269980,0.989484,0.035537,-0.019489,0.009328,175.945517,0.999135,3.325287,5.879589,0.178030
1690687178.495616,1689261207.407614,2.261096,0.971557,0.035523,-0.019418,0.009169,175.946696,0.999138,3.325299,5.879564,0.178008
1690687178.502849,1689261207.416008,2.271244,0.979154,0.035497,-0.019504,0.009238,175.949956,0.999137,3.325277,5.879598,0.178033
1690687178.511248,1689261207.424242,2.268117,0.979157,0.035472,-0.019477,0.009237,175.952769,0.999138,3.325286,5.879597,0.178041
1690687178.519747,1689261207.432682,2.272058,0.988336,0.035458,-0.019509,0.009317,175.954626,0.999137,3.325272,5.879626,0.178036
1690687178.536047,1689261207.449358,2.265345,1.000895,0.035587,-0.019445,0.009427,175.940010,0.999133,3.325283,5.879631,0.178033
1690687178.545035,1689261207.457876,2.276856,0.995099,0.035521,-0.019548,0.009379,175.947538,0.999134,3.325286,5.879647,0.178028
1690687178.553464,1689261207.466041,2.269299,0.994294,0.035476,-0.019483,0.009369,175.952686,0.999137,3.325298,5.879626,0.178014
1690687178.561178,1689261207.474309,2.266902,0.986108,0.035463,-0.019464,0.009297,175.953995,0.999138,3.325292,5.879611,0.178024
1690687178.569320,1689261207.482566,2.270008,0.995636,0.035550,-0.019488,0.009382,175.944191,0.999134,3.325289,5.879610,0.178031
1690687178.577558,1689261207.490963,2.266747,0.986501,0.035515,-0.019462,0.009301,175.948021,0.999136,3.325279,5.879621,0.178045
1690687178.594569,1689261207.507704,2.274804,0.995236,0.035650,-0.019529,0.009382,175.932752,0.999130,3.325282,5.879601,0.178010
1690687178.602329,1689261207.515918,2.272916,0.989292,0.035556,-0.019515,0.009328,175.943395,0.999134,3.325286,5.879591,0.178021
1690687178.611055,1689261207.524294,2.262341,0.979508,0.035486,-0.019426,0.009238,175.951158,0.999139,3.325285,5.879590,0.178043
1690687178.627843,1689261207.540986,2.264837,0.985641,0.035510,-0.019446,0.009293,175.948542,0.999137,3.325276,5.879600,0.178035
1690687178.628563,1689261207.541063,2.262212,0.981576,0.035501,-0.019425,0.009256,175.949465,0.999138,3.325286,5.879601,0.178040
1690687178.645028,1689261207.557853,2.267702,0.993816,0.035537,-0.019468,0.009365,175.945629,0.999135,3.325289,5.879606,0.178037
1690687178.653480,1689261207.566015,2.264232,0.990369,0.035522,-0.019439,0.009334,175.947192,0.999136,3.325294,5.879608,0.178033
1690687178.661678,1689261207.574227,2.273362,0.996617,0.035535,-0.019517,0.009392,175.945963,0.999134,3.325285,5.879624,0.178047
1690687178.669628,1689261207.582610,2.264518,0.983970,0.035435,-0.019445,0.009277,175.957048,0.999140,3.325289,5.879618,0.178028
1690687178.686696,1689261207.599298,2.273045,0.999031,0.035550,-0.019513,0.009413,175.944329,0.999133,3.325286,5.879619,0.178024
1690687178.694636,1689261207.607706,2.261750,0.997892,0.035556,-0.019415,0.009399,175.943525,0.999135,3.325284,5.879608,0.178036
1690687178.703415,1689261207.615911,2.272779,0.992830,0.035527,-0.019513,0.009358,175.946820,0.999134,3.325284,5.879599,0.178025
1690687178.711744,1689261207.624720,2.266426,0.989578,0.035618,-0.019458,0.009330,175.936257,0.999133,3.325271,5.879593,0.178031
1690687178.719364,1689261207.632569,2.270332,0.982958,0.035473,-0.019495,0.009270,175.952770,0.999138,3.325276,5.879593,0.178052
1690687178.736623,1689261207.649313,2.270403,0.980841,0.035458,-0.019497,0.009252,175.954481,0.999138,3.325280,5.879579,0.178028
1690687178.744940,1689261207.657655,2.269327,0.990052,0.035572,-0.019483,0.009334,175.941584,0.999134,3.325281,5.879581,0.178030
1690687178.753021,1689261207.666026,2.264536,0.978292,0.035514,-0.019446,0.009229,175.947874,0.999137,3.325282,5.879577,0.178030
1690687178.761294,1689261207.674361,2.265223,0.992188,0.035523,-0.019447,0.009350,175.947210,0.999136,3.325292,5.879593,0.178032
1690687178.769786,1689261207.682642,2.262022,0.992940,0.035564,-0.019419,0.009357,175.942428,0.999135,3.325289,5.879609,0.178046
1690687178.785928,1689261207.699268,2.272831,0.991762,0.035473,-0.019514,0.009348,175.952959,0.999136,3.325281,5.879606,0.178030
1690687178.794678,1689261207.707824,2.266305,0.992375,0.035513,-0.019457,0.009352,175.948293,0.999136,3.325302,5.879619,0.178022
1690687178.803223,1689261207.716220,2.269931,1.000675,0.035553,-0.019485,0.009426,175.943919,0.999133,3.325304,5.879614,0.178027
1690687178.811265,1689261207.724253,2.261321,0.997002,0.035538,-0.019412,0.009391,175.945562,0.999136,3.325295,5.879607,0.178033
1690687178.818897,1689261207.732551,2.273208,0.998594,0.035657,-0.019514,0.009411,175.931962,0.999129,3.325287,5.879600,0.178035
1690687178.827850,1689261207.740968,2.268982,0.998099,0.035614,-0.019477,0.009405,175.936875,0.999132,3.325282,5.879601,0.178039
1690687178.845252,1689261207.757670,2.274631,0.993284,0.035594,-0.019528,0.009364,175.939168,0.999132,3.325283,5.879588,0.178026
1690687178.852629,1689261207.765887,2.266781,0.989786,0.035617,-0.019461,0.009332,175.936315,0.999132,3.325287,5.879584,0.178027
1690687178.861385,1689261207.774519,2.264796,0.979796,0.035487,-0.019448,0.009241,175.951059,0.999138,3.325295,5.879590,0.178034
1690687178.869716,1689261207.782617,2.270253,0.996691,0.035603,-0.019489,0.009393,175.938160,0.999132,3.325280,5.879590,0.178034
1690687178.877781,1689261207.790891,2.274720,0.992483,0.035509,-0.019530,0.009355,175.948881,0.999135,3.325272,5.879602,0.178029
1690687178.894989,1689261207.807956,2.268743,0.990322,0.035577,-0.019478,0.009336,175.940974,0.999133,3.325279,5.879606,0.178025
1690687178.903155,1689261207.816209,2.268318,0.994181,0.035563,-0.019473,0.009369,175.942596,0.999134,3.325296,5.879609,0.178040
1690687178.911602,1689261207.824192,2.273350,1.007226,0.035609,-0.019513,0.009485,175.937669,0.999130,3.325286,5.879622,0.178031
1690687178.919647,1689261207.832659,2.269367,0.997683,0.035480,-0.019482,0.009399,175.952246,0.999136,3.325276,5.879621,0.178017
1690687178.936447,1689261207.849296,2.269955,0.995848,0.035541,-0.019487,0.009384,175.945190,0.999134,3.325278,5.879619,0.178034
1690687178.944121,1689261207.857520,2.270831,0.989115,0.035512,-0.019497,0.009325,175.948449,0.999136,3.325282,5.879617,0.178030
1690687178.952786,1689261207.865945,2.263906,0.982865,0.035503,-0.019439,0.009268,175.949243,0.999138,3.325279,5.879604,0.178030
1690687178.961348,1689261207.874525,2.270657,0.989608,0.035526,-0.019495,0.009329,175.946864,0.999135,3.325280,5.879595,0.178031
1690687178.969494,1689261207.882514,2.267085,0.985124,0.035559,-0.019465,0.009290,175.942964,0.999135,3.325276,5.879601,0.178040
1690687178.977311,1689261207.890854,2.268599,0.980055,0.035499,-0.019481,0.009245,175.949692,0.999137,3.325285,5.879583,0.178032
1690687178.994835,1689261207.907612,2.265953,0.983519,0.035559,-0.019456,0.009276,175.942881,0.999135,3.325276,5.879587,0.178038
1690687179.002321,1689261207.915861,2.254981,0.979421,0.035452,-0.019363,0.009234,175.954996,0.999141,3.325274,5.879593,0.178046
1690687179.011250,1689261207.924488,2.271780,0.995982,0.035589,-0.019503,0.009387,175.939744,0.999132,3.325283,5.879589,0.178037
1690687179.019330,1689261207.932628,2.269299,0.991361,0.035512,-0.019483,0.009344,175.948415,0.999136,3.325284,5.879611,0.178033
1690687179.029135,1689261207.941133,2.265229,0.990891,0.035437,-0.019449,0.009337,175.957015,0.999139,3.325274,5.879620,0.178048
1690687179.045072,1689261207.957859,2.264224,0.987155,0.035434,-0.019441,0.009304,175.957302,0.999140,3.325280,5.879610,0.178034
1690687179.053097,1689261207.966018,2.268057,0.998340,0.035572,-0.019470,0.009406,175.941656,0.999133,3.325284,5.879611,0.178039
1690687179.061269,1689261207.974357,2.272104,0.998914,0.035556,-0.019505,0.009412,175.943588,0.999133,3.325283,5.879608,0.178028
1690687179.069191,1689261207.982547,2.259759,0.985645,0.035462,-0.019402,0.009290,175.954049,0.999139,3.325292,5.879598,0.178035
1690687179.086648,1689261207.999331,2.269368,0.988164,0.035441,-0.019485,0.009315,175.956535,0.999138,3.325289,5.879595,0.178027
1690687179.094480,1689261208.007624,2.273118,0.984251,0.035547,-0.019518,0.009284,175.944306,0.999134,3.325274,5.879588,0.178035
1690687179.102414,1689261208.015903,2.271180,0.989918,0.035610,-0.019499,0.009334,175.937174,0.999132,3.325286,5.879580,0.178021
1690687179.111097,1689261208.024316,2.268096,0.995601,0.035647,-0.019470,0.009383,175.933015,0.999131,3.325294,5.879579,0.178035
1690687179.119487,1689261208.032684,2.269832,0.984239,0.035545,-0.019490,0.009283,175.944541,0.999135,3.325282,5.879588,0.178024
1690687179.136315,1689261208.049313,2.276034,0.989862,0.035509,-0.019542,0.009333,175.948784,0.999135,3.325285,5.879599,0.178017
1690687179.144893,1689261208.057883,2.264220,0.990688,0.035604,-0.019438,0.009338,175.937862,0.999133,3.325281,5.879603,0.178036
1690687179.152793,1689261208.066000,2.266001,0.986432,0.035471,-0.019456,0.009299,175.953075,0.999138,3.325289,5.879611,0.178022
1690687179.161382,1689261208.074328,2.264895,0.992332,0.035503,-0.019445,0.009351,175.949475,0.999137,3.325299,5.879619,0.178024
1690687179.169700,1689261208.082927,2.266618,1.006127,0.035661,-0.019454,0.009475,175.931612,0.999130,3.325288,5.879622,0.178022
1690687179.186006,1689261208.099281,2.274395,0.996162,0.035546,-0.019526,0.009388,175.944726,0.999133,3.325288,5.879610,0.178023
1690687179.193841,1689261208.107562,2.263180,0.993627,0.035492,-0.019429,0.009362,175.950729,0.999137,3.325282,5.879603,0.178025
1690687179.202096,1689261208.115898,2.271008,0.990404,0.035515,-0.019498,0.009336,175.948159,0.999135,3.325281,5.879601,0.178029
1690687179.210986,1689261208.124526,2.266519,0.987461,0.035546,-0.019460,0.009310,175.944498,0.999135,3.325283,5.879595,0.178023
1690687179.218670,1689261208.132514,2.265411,0.983892,0.035555,-0.019451,0.009279,175.943329,0.999135,3.325288,5.879582,0.178018
1690687179.236800,1689261208.149683,2.269163,0.988717,0.035563,-0.019482,0.009322,175.942528,0.999134,3.325279,5.879585,0.178020
1690687179.244763,1689261208.157890,2.267204,0.980204,0.035532,-0.019468,0.009247,175.945969,0.999136,3.325285,5.879585,0.178029
1690687179.252431,1689261208.165921,2.267659,0.977306,0.035494,-0.019473,0.009221,175.950210,0.999138,3.325281,5.879589,0.178019
1690687179.262086,1689261208.174334,2.273406,1.000290,0.035691,-0.019515,0.009427,175.928147,0.999128,3.325279,5.879608,0.178016
1690687179.269408,1689261208.182632,2.266277,0.985420,0.035488,-0.019459,0.009291,175.951087,0.999137,3.325297,5.879597,0.178019
1690687179.286282,1689261208.199277,2.262851,0.994708,0.035551,-0.019426,0.009372,175.943975,0.999135,3.325291,5.879615,0.178027
1690687179.294458,1689261208.207663,2.271024,0.988582,0.035470,-0.019499,0.009319,175.953207,0.999137,3.325283,5.879613,0.178024
1690687179.302599,1689261208.215904,2.261901,0.995844,0.035573,-0.019417,0.009382,175.941527,0.999134,3.325283,5.879610,0.178033
1690687179.311221,1689261208.224378,2.268343,0.997887,0.035637,-0.019472,0.009403,175.934202,0.999131,3.325283,5.879608,0.178034
1690687179.328422,1689261208.241209,2.261439,0.988409,0.035567,-0.019415,0.009317,175.942048,0.999135,3.325279,5.879600,0.178033
1690687179.337372,1689261208.249374,2.266851,0.985252,0.035558,-0.019463,0.009291,175.942984,0.999135,3.325282,5.879581,0.178011
1690687179.344144,1689261208.257580,2.270893,0.989295,0.035588,-0.019497,0.009328,175.939730,0.999133,3.325283,5.879592,0.178027
1690687179.352630,1689261208.265980,2.269051,0.988388,0.035564,-0.019481,0.009319,175.942447,0.999134,3.325284,5.879577,0.178028
1690687179.361387,1689261208.274534,2.272273,0.987877,0.035581,-0.019510,0.009316,175.940454,0.999133,3.325284,5.879584,0.178008
1690687179.369340,1689261208.282635,2.269111,0.992242,0.035566,-0.019481,0.009353,175.942232,0.999134,3.325289,5.879590,0.178026
1690687179.386086,1689261208.299298,2.268929,0.996235,0.035601,-0.019478,0.009388,175.938323,0.999132,3.325295,5.879594,0.178025
1690687179.394466,1689261208.307941,2.266611,0.987656,0.035548,-0.019461,0.009312,175.944224,0.999135,3.325279,5.879604,0.178026
1690687179.402214,1689261208.315901,2.273179,0.991498,0.035491,-0.019517,0.009346,175.950888,0.999136,3.325289,5.879608,0.178019
1690687179.410660,1689261208.324238,2.274350,1.007519,0.035667,-0.019521,0.009489,175.931076,0.999128,3.325283,5.879625,0.178033
1690687179.428089,1689261208.341198,2.271038,0.996130,0.035541,-0.019497,0.009387,175.945258,0.999134,3.325288,5.879623,0.178024
1690687179.436135,1689261208.349225,2.267941,0.999277,0.035588,-0.019468,0.009414,175.939864,0.999133,3.325279,5.879606,0.178025
1690687179.444423,1689261208.357669,2.266865,0.992272,0.035557,-0.019461,0.009352,175.943332,0.999134,3.325283,5.879604,0.178031
1690687179.453096,1689261208.366450,2.269575,0.988261,0.035528,-0.019486,0.009317,175.946576,0.999135,3.325281,5.879600,0.178026
1690687179.461436,1689261208.374561,2.265954,0.993223,0.035596,-0.019453,0.009361,175.938815,0.999133,3.325297,5.879588,0.178035
1690687179.469087,1689261208.382557,2.263627,0.987421,0.035502,-0.019435,0.009308,175.949495,0.999137,3.325276,5.879594,0.178025
1690687179.486059,1689261208.399323,2.264798,0.984625,0.035581,-0.019445,0.009285,175.940427,0.999135,3.325279,5.879585,0.178028
1690687179.494453,1689261208.407649,2.277940,0.986258,0.035554,-0.019560,0.009303,175.943619,0.999133,3.325280,5.879585,0.178032
1690687179.502594,1689261208.415841,2.265762,0.990336,0.035587,-0.019452,0.009335,175.939839,0.999134,3.325289,5.879590,0.178025
1690687179.511131,1689261208.424304,2.276273,0.990126,0.035431,-0.019545,0.009334,175.957776,0.999137,3.325285,5.879606,0.178038
1690687179.519961,1689261208.432612,2.269451,1.003226,0.035618,-0.019480,0.009450,175.936557,0.999131,3.325296,5.879609,0.178018
1690687179.535935,1689261208.449257,2.263036,0.997538,0.035546,-0.019426,0.009397,175.944575,0.999135,3.325293,5.879618,0.178027
1690687179.544757,1689261208.457857,2.268720,0.992308,0.035524,-0.019478,0.009352,175.947086,0.999135,3.325300,5.879623,0.178032
1690687179.552680,1689261208.465979,2.268620,0.992625,0.035515,-0.019477,0.009355,175.948156,0.999136,3.325295,5.879612,0.178017
1690687179.561280,1689261208.474636,2.263135,0.996755,0.035588,-0.019427,0.009391,175.939765,0.999134,3.325287,5.879617,0.178028
1690687179.577557,1689261208.490939,2.269235,0.999194,0.035619,-0.019479,0.009414,175.936318,0.999131,3.325296,5.879603,0.178021
1690687179.578345,1689261208.490995,2.262083,0.973809,0.035460,-0.019426,0.009188,175.953985,0.999140,3.325282,5.879595,0.178037
1690687179.594032,1689261208.507639,2.272633,0.993265,0.035644,-0.019510,0.009364,175.933335,0.999130,3.325285,5.879589,0.178024
1690687179.602088,1689261208.515894,2.257694,0.973970,0.035496,-0.019388,0.009189,175.949816,0.999140,3.325281,5.879578,0.178026
1690687179.611046,1689261208.524536,2.269781,0.982680,0.035485,-0.019490,0.009268,175.951439,0.999137,3.325281,5.879583,0.178017
1690687179.619237,1689261208.532675,2.272319,0.997945,0.035612,-0.019507,0.009404,175.937173,0.999131,3.325286,5.879585,0.178023
1690687179.627872,1689261208.541413,2.270889,0.991345,0.035596,-0.019496,0.009346,175.938820,0.999132,3.325277,5.879603,0.178015
1690687179.645582,1689261208.557855,2.267886,1.000701,0.035613,-0.019467,0.009427,175.937046,0.999132,3.325291,5.879611,0.178026
1690687179.652694,1689261208.565977,2.268263,1.000301,0.035534,-0.019471,0.009422,175.946127,0.999134,3.325290,5.879631,0.178028
1690687179.660744,1689261208.574236,2.274161,1.000389,0.035572,-0.019522,0.009425,175.941801,0.999132,3.325293,5.879619,0.178024
1690687179.677913,1689261208.591003,2.271304,0.994565,0.035507,-0.019500,0.009372,175.949141,0.999135,3.325299,5.879613,0.178016
1690687179.686454,1689261208.599302,2.272664,0.997075,0.035618,-0.019510,0.009397,175.936448,0.999131,3.325283,5.879622,0.178036
1690687179.694653,1689261208.607712,2.262744,0.989252,0.035617,-0.019426,0.009326,175.936272,0.999133,3.325290,5.879604,0.178026
1690687179.703115,1689261208.616349,2.271825,0.996028,0.035622,-0.019503,0.009388,175.935954,0.999131,3.325280,5.879597,0.178032
1690687179.711545,1689261208.624722,2.265092,0.984160,0.035579,-0.019448,0.009281,175.940646,0.999134,3.325282,5.879584,0.178031
1690687179.719076,1689261208.632594,2.266074,0.990671,0.035569,-0.019455,0.009338,175.941864,0.999134,3.325281,5.879577,0.178027
1690687179.736168,1689261208.649288,2.277776,0.995864,0.035643,-0.019555,0.009388,175.933623,0.999129,3.325281,5.879584,0.178017
1690687179.745495,1689261208.657872,2.269250,0.998288,0.035677,-0.019479,0.009408,175.929627,0.999129,3.325290,5.879581,0.178024
1690687179.752622,1689261208.665916,2.274027,0.994175,0.035618,-0.019523,0.009372,175.936432,0.999131,3.325280,5.879580,0.178024
1690687179.761647,1689261208.674325,2.268568,0.990806,0.035518,-0.019477,0.009339,175.947791,0.999136,3.325288,5.879604,0.178028
1690687179.769564,1689261208.682764,2.268887,0.995578,0.035576,-0.019478,0.009382,175.941157,0.999133,3.325281,5.879611,0.178015
1690687179.786130,1689261208.699270,2.259872,0.991290,0.035539,-0.019401,0.009341,175.945258,0.999136,3.325288,5.879619,0.178024
1690687179.793796,1689261208.707544,2.263110,0.989826,0.035513,-0.019430,0.009329,175.948287,0.999137,3.325289,5.879614,0.178031
1690687179.802506,1689261208.715940,2.262168,0.995343,0.035567,-0.019419,0.009378,175.942174,0.999135,3.325295,5.879613,0.178018
1690687179.810616,1689261208.724300,2.273629,0.996300,0.035572,-0.019519,0.009390,175.941665,0.999132,3.325291,5.879598,0.178024
1690687179.818780,1689261208.732504,2.271204,0.998230,0.035600,-0.019497,0.009406,175.938456,0.999132,3.325290,5.879595,0.178025
1690687179.827770,1689261208.741003,2.273265,0.987150,0.035526,-0.019519,0.009309,175.946821,0.999135,3.325276,5.879586,0.178027
1690687179.844742,1689261208.757674,2.269068,0.989141,0.035574,-0.019481,0.009326,175.941293,0.999134,3.325287,5.879582,0.178020
1690687179.852623,1689261208.766071,2.262939,0.978676,0.035486,-0.019432,0.009231,175.951133,0.999139,3.325278,5.879571,0.178039
1690687179.861573,1689261208.774344,2.273099,0.980562,0.035471,-0.019520,0.009250,175.953011,0.999137,3.325279,5.879591,0.178024
1690687179.869626,1689261208.782656,2.262355,0.985416,0.035561,-0.019424,0.009291,175.942683,0.999136,3.325290,5.879584,0.178025
1690687179.877456,1689261208.790916,2.269660,0.990734,0.035594,-0.019486,0.009340,175.939014,0.999133,3.325279,5.879588,0.178029
1690687179.894610,1689261208.807669,2.263891,0.992461,0.035536,-0.019435,0.009352,175.945721,0.999136,3.325292,5.879604,0.178040
1690687179.902921,1689261208.816004,2.262813,1.001955,0.035598,-0.019423,0.009436,175.938699,0.999133,3.325291,5.879618,0.178012
1690687179.910843,1689261208.824247,2.261503,0.987465,0.035468,-0.019417,0.009307,175.953359,0.999139,3.325289,5.879603,0.178030
1690687179.919863,1689261208.832689,2.276928,1.005861,0.035652,-0.019544,0.009475,175.932766,0.999128,3.325287,5.879625,0.178028
1690687179.935976,1689261208.849326,2.269702,1.000901,0.035632,-0.019483,0.009430,175.934873,0.999131,3.325283,5.879619,0.178031
1690687179.944062,1689261208.857547,2.271346,0.993979,0.035550,-0.019500,0.009368,175.944134,0.999134,3.325288,5.879600,0.178021
1690687179.953460,1689261208.866016,2.257018,0.977055,0.035505,-0.019381,0.009215,175.948909,0.999139,3.325286,5.879581,0.178029
1690687179.961643,1689261208.874324,2.262274,0.983959,0.035563,-0.019424,0.009278,175.942414,0.999136,3.325282,5.879595,0.178026
1690687179.969654,1689261208.882606,2.265160,0.985735,0.035542,-0.019449,0.009294,175.944874,0.999136,3.325288,5.879578,0.178030
1690687179.986049,1689261208.899285,2.265415,0.990116,0.035590,-0.019449,0.009333,175.939477,0.999134,3.325288,5.879586,0.178006
1690687179.994091,1689261208.907681,2.261325,0.977164,0.035498,-0.019418,0.009218,175.949684,0.999139,3.325284,5.879580,0.178026
1690687180.002642,1689261208.916204,2.268235,0.996978,0.035610,-0.019471,0.009395,175.937313,0.999132,3.325289,5.879588,0.178018
1690687180.010531,1689261208.924225,2.266870,0.989933,0.035554,-0.019462,0.009332,175.943635,0.999135,3.325279,5.879605,0.178025
1690687180.019094,1689261208.932691,2.268152,1.000125,0.035616,-0.019470,0.009422,175.936644,0.999132,3.325281,5.879619,0.178028
1690687180.035692,1689261208.949293,2.277641,1.000845,0.035497,-0.019553,0.009429,175.950472,0.999134,3.325279,5.879619,0.178025
1690687180.044631,1689261208.957906,2.265532,0.992923,0.035507,-0.019450,0.009356,175.949032,0.999136,3.325293,5.879612,0.178024
1690687180.052725,1689261208.966007,2.271448,0.992683,0.035491,-0.019502,0.009356,175.950952,0.999136,3.325297,5.879613,0.178019
1690687180.061554,1689261208.974790,2.270768,0.997645,0.035538,-0.019494,0.009400,175.945594,0.999134,3.325291,5.879604,0.178020
1690687180.077964,1689261208.991256,2.255445,0.980548,0.035573,-0.019365,0.009247,175.941105,0.999137,3.325297,5.879576,0.178022
1690687180.095418,1689261209.007708,2.273739,0.990812,0.035568,-0.019522,0.009342,175.942078,0.999133,3.325281,5.879593,0.178021
1690687180.102581,1689261209.015903,2.267782,0.987165,0.035536,-0.019471,0.009307,175.945642,0.999135,3.325280,5.879583,0.178019
1690687180.111729,1689261209.024557,2.273656,0.991282,0.035572,-0.019521,0.009346,175.941569,0.999133,3.325289,5.879585,0.178013
1690687180.120210,1689261209.033043,2.258401,0.993193,0.035635,-0.019386,0.009359,175.934319,0.999133,3.325292,5.879590,0.178027
1690687180.136175,1689261209.049296,2.263622,0.985447,0.035492,-0.019436,0.009290,175.950554,0.999138,3.325282,5.879602,0.178028
1690687180.144408,1689261209.057828,2.270649,0.982261,0.035419,-0.019499,0.009263,175.958981,0.999139,3.325299,5.879607,0.178029
1690687180.152780,1689261209.065989,2.273699,0.996026,0.035521,-0.019520,0.009386,175.947595,0.999134,3.325276,5.879614,0.178026
1690687180.161029,1689261209.074245,2.266106,0.991961,0.035495,-0.019455,0.009348,175.950386,0.999137,3.325289,5.879612,0.178026
1690687180.169423,1689261209.082910,2.271600,1.002774,0.035615,-0.019499,0.009446,175.936928,0.999131,3.325283,5.879619,0.178021
1690687180.185872,1689261209.099306,2.267783,0.996544,0.035599,-0.019468,0.009390,175.938531,0.999132,3.325287,5.879606,0.178019
1690687180.194014,1689261209.107665,2.276378,0.996148,0.035550,-0.019543,0.009389,175.944193,0.999133,3.325282,5.879598,0.178022
1690687180.202000,1689261209.115891,2.271288,0.994996,0.035559,-0.019499,0.009377,175.943174,0.999133,3.325279,5.879597,0.178026
1690687180.210834,1689261209.124554,2.262979,0.988932,0.035568,-0.019428,0.009322,175.941972,0.999135,3.325282,5.879590,0.178039
1690687180.219083,1689261209.132545,2.264878,0.977101,0.035504,-0.019449,0.009218,175.949069,0.999138,3.325285,5.879581,0.178039
1690687180.227280,1689261209.141029,2.270174,0.992528,0.035595,-0.019490,0.009356,175.938981,0.999132,3.325278,5.879581,0.178024
1690687180.244629,1689261209.157876,2.270648,0.982366,0.035465,-0.019498,0.009265,175.953649,0.999138,3.325281,5.879596,0.178032
1690687180.252370,1689261209.165946,2.267879,0.993447,0.035590,-0.019469,0.009363,175.939527,0.999133,3.325284,5.879585,0.178030
