__time,/vrpn_client_node/turtlebot7/pose/header/stamp,/vrpn_client_node/turtlebot7/pose/pose/orientation/pitch_deg,/vrpn_client_node/turtlebot7/pose/pose/orientation/roll_deg,/vrpn_client_node/turtlebot7/pose/pose/orientation/w,/vrpn_client_node/turtlebot7/pose/pose/orientation/x,/vrpn_client_node/turtlebot7/pose/pose/orientation/y,/vrpn_client_node/turtlebot7/pose/pose/orientation/yaw_deg,/vrpn_client_node/turtlebot7/pose/pose/orientation/z,/vrpn_client_node/turtlebot7/pose/pose/position/x,/vrpn_client_node/turtlebot7/pose/pose/position/y,/vrpn_client_node/turtlebot7/pose/pose/position/z
1690687607.828264,1689262589.514456,1.202892,0.926001,-0.143585,-0.011549,0.006488,-163.478177,0.989549,3.058843,5.933609,0.174554
1690687607.829937,1689262589.522546,1.198295,0.917555,-0.143611,-0.011499,0.006421,-163.475312,0.989547,3.058839,5.933616,0.174564
1690687607.847024,1689262589.539171,1.212499,0.920997,-0.143656,-0.011626,0.006432,-163.469838,0.989538,3.058847,5.933614,0.174541
1690687607.847594,1689262589.539243,1.203541,0.919750,-0.143574,-0.011546,0.006434,-163.479518,0.989551,3.058832,5.933613,0.174543
1690687607.863753,1689262589.556042,1.209710,0.926321,-0.143529,-0.011608,0.006483,-163.484550,0.989557,3.058835,5.933599,0.174558
1690687607.872090,1689262589.564276,1.212937,0.924096,-0.143492,-0.011633,0.006460,-163.488803,0.989562,3.058834,5.933588,0.174549
1690687607.879990,1689262589.572529,1.208826,0.916197,-0.143576,-0.011588,0.006396,-163.479206,0.989551,3.058837,5.933581,0.174556
1690687607.897445,1689262589.589413,1.206058,0.913276,-0.143564,-0.011560,0.006375,-163.480713,0.989553,3.058835,5.933574,0.174550
1690687607.905082,1689262589.597455,1.205010,0.921329,-0.143467,-0.011560,0.006447,-163.491808,0.989567,3.058835,5.933587,0.174552
1690687607.913799,1689262589.606080,1.203841,0.919893,-0.143505,-0.011549,0.006435,-163.487426,0.989561,3.058837,5.933589,0.174559
1690687607.921706,1689262589.614197,1.201878,0.921131,-0.143576,-0.011534,0.006448,-163.479242,0.989551,3.058837,5.933592,0.174554
1690687607.929888,1689262589.622697,1.203026,0.912916,-0.143583,-0.011534,0.006375,-163.478483,0.989551,3.058846,5.933606,0.174561
1690687607.938200,1689262589.630825,1.201098,0.923028,-0.143551,-0.011529,0.006465,-163.482134,0.989555,3.058834,5.933605,0.174563
1690687607.954968,1689262589.647504,1.205668,0.926335,-0.143572,-0.011573,0.006488,-163.479617,0.989551,3.058844,5.933610,0.174550
1690687607.963398,1689262589.655898,1.200920,0.920936,-0.143629,-0.011526,0.006447,-163.473065,0.989543,3.058840,5.933621,0.174556
1690687607.971166,1689262589.664083,1.206547,0.927736,-0.143535,-0.011582,0.006499,-163.483819,0.989556,3.058835,5.933609,0.174562
1690687607.980008,1689262589.672490,1.211277,0.933444,-0.143478,-0.011630,0.006543,-163.490319,0.989564,3.058836,5.933597,0.174552
1690687607.988314,1689262589.680871,1.206606,0.926028,-0.143483,-0.011580,0.006485,-163.489904,0.989564,3.058837,5.933593,0.174535
1690687608.005706,1689262589.697474,1.205318,0.915378,-0.143496,-0.011556,0.006395,-163.488588,0.989563,3.058848,5.933587,0.174541
1690687608.014133,1689262589.705876,1.210076,0.920282,-0.143486,-0.011603,0.006431,-163.489566,0.989563,3.058828,5.933581,0.174559
1690687608.022448,1689262589.714572,1.151637,0.939338,-0.142793,-0.011118,0.006677,-163.570221,0.989668,3.058801,5.933614,0.174596
1690687608.029835,1689262589.722414,1.211459,0.921167,-0.143642,-0.011617,0.006435,-163.471472,0.989541,3.058829,5.933586,0.174558
1690687608.038930,1689262589.730794,1.191343,0.912477,-0.143581,-0.011432,0.006386,-163.478831,0.989552,3.058856,5.933591,0.174543
1690687608.055413,1689262589.747501,1.204410,0.917006,-0.143597,-0.011551,0.006409,-163.476850,0.989548,3.058854,5.933596,0.174564
1690687608.063319,1689262589.755774,1.200588,0.919992,-0.143557,-0.011521,0.006440,-163.481427,0.989554,3.058848,5.933605,0.174551
1690687608.072457,1689262589.764179,1.201073,0.923854,-0.143557,-0.011530,0.006472,-163.481378,0.989554,3.058843,5.933610,0.174544
1690687608.183443,1689262589.780903,1.198038,0.921281,-0.143522,-0.011501,0.006454,-163.485517,0.989559,3.058833,5.933616,0.174562
1690687608.267352,1689262589.814085,1.213023,0.918583,-0.143541,-0.011627,0.006412,-163.483246,0.989555,3.058834,5.933583,0.174537
1690687608.267514,1689262589.839184,1.202104,0.918309,-0.143513,-0.011532,0.006424,-163.486506,0.989560,3.058837,5.933581,0.174572
1690687608.267616,1689262589.864390,1.203218,0.923179,-0.143547,-0.011548,0.006464,-163.482550,0.989555,3.058841,5.933599,0.174554
1690687608.267652,1689262589.872710,1.200022,0.909724,-0.143602,-0.011504,0.006351,-163.476408,0.989548,3.058851,5.933589,0.174543
1690687608.267770,1689262589.889402,1.210841,0.916572,-0.143699,-0.011606,0.006396,-163.465011,0.989533,3.058854,5.933589,0.174541
1690687608.267817,1689262589.897722,1.201295,0.924316,-0.143557,-0.011533,0.006476,-163.481391,0.989554,3.058840,5.933616,0.174557
1690687608.267854,1689262589.905845,1.204324,0.923314,-0.143546,-0.011558,0.006464,-163.482680,0.989555,3.058838,5.933617,0.174548
1690687608.267902,1689262589.914095,1.208490,0.930133,-0.143471,-0.011602,0.006518,-163.491205,0.989565,3.058835,5.933609,0.174552
1690687608.267939,1689262589.922519,1.208517,0.922122,-0.143521,-0.011592,0.006449,-163.485564,0.989558,3.058837,5.933594,0.174546
1690687608.267998,1689262589.930847,1.213700,0.920865,-0.143524,-0.011635,0.006431,-163.485180,0.989558,3.058840,5.933592,0.174543
1690687608.268038,1689262589.947489,1.211947,0.923390,-0.143482,-0.011623,0.006456,-163.490011,0.989564,3.058838,5.933578,0.174549
1690687608.268137,1689262589.956060,1.194543,0.910558,-0.143545,-0.011457,0.006366,-163.483057,0.989557,3.058850,5.933579,0.174539
1690687608.271975,1689262589.964401,1.208233,0.918111,-0.143498,-0.011584,0.006415,-163.488273,0.989562,3.058835,5.933593,0.174559
1690687608.280033,1689262589.972519,1.208460,0.917724,-0.143541,-0.011586,0.006410,-163.483232,0.989556,3.058841,5.933600,0.174568
1690687608.288581,1689262589.981066,1.204127,0.913969,-0.143539,-0.011544,0.006383,-163.483556,0.989557,3.058836,5.933593,0.174562
1690687608.305732,1689262589.997674,1.206306,0.924877,-0.143503,-0.011576,0.006475,-163.487578,0.989561,3.058847,5.933595,0.174557
1690687608.312994,1689262590.005767,1.210446,0.907487,-0.143757,-0.011592,0.006317,-163.458329,0.989525,3.058852,5.933606,0.174534
1690687608.322045,1689262590.014148,1.206341,0.925943,-0.143578,-0.011578,0.006484,-163.478846,0.989550,3.058840,5.933611,0.174547
1690687608.330426,1689262590.022816,1.196842,0.923178,-0.143554,-0.011493,0.006472,-163.481821,0.989555,3.058836,5.933616,0.174561
1690687608.346779,1689262590.039287,1.209705,0.923675,-0.143532,-0.011604,0.006460,-163.484199,0.989557,3.058832,5.933610,0.174565
1690687608.363758,1689262590.055816,1.208414,0.924038,-0.143538,-0.011594,0.006465,-163.483593,0.989556,3.058836,5.933595,0.174545
1690687608.371618,1689262590.064185,1.202914,0.920984,-0.143508,-0.011542,0.006446,-163.487151,0.989561,3.058838,5.933586,0.174559
1690687608.379827,1689262590.072553,1.204526,0.913637,-0.143592,-0.011547,0.006379,-163.477433,0.989549,3.058832,5.933589,0.174557
1690687608.388228,1689262590.080760,1.207362,0.916525,-0.143542,-0.011575,0.006401,-163.483165,0.989556,3.058836,5.933582,0.174549
1690687608.405180,1689262590.097538,1.207716,0.918275,-0.143539,-0.011580,0.006416,-163.483535,0.989556,3.058843,5.933591,0.174558
1690687608.413356,1689262590.105817,1.209769,0.920393,-0.143575,-0.011601,0.006431,-163.479227,0.989551,3.058830,5.933590,0.174567
1690687608.421917,1689262590.114223,1.200004,0.917009,-0.143583,-0.011513,0.006414,-163.478543,0.989551,3.058844,5.933591,0.174547
1690687608.438197,1689262590.130792,1.198255,0.920200,-0.143548,-0.011501,0.006444,-163.482577,0.989556,3.058841,5.933593,0.174550
1690687608.438858,1689262590.130843,1.202588,0.921865,-0.143583,-0.011541,0.006453,-163.478419,0.989550,3.058845,5.933606,0.174545
1690687608.455471,1689262590.147705,1.199757,0.918064,-0.143613,-0.011512,0.006423,-163.475042,0.989546,3.058826,5.933613,0.174573
1690687608.464072,1689262590.156044,1.207010,0.921533,-0.143634,-0.011579,0.006444,-163.472420,0.989542,3.058830,5.933616,0.174559
1690687608.472883,1689262590.164202,1.205158,0.913882,-0.143631,-0.011553,0.006380,-163.472920,0.989543,3.058837,5.933614,0.174564
1690687608.479761,1689262590.172429,1.203416,0.920811,-0.143635,-0.011547,0.006442,-163.472432,0.989542,3.058836,5.933594,0.174553
1690687608.497038,1689262590.189257,1.214565,0.922789,-0.143560,-0.011645,0.006446,-163.480936,0.989552,3.058835,5.933589,0.174559
1690687608.506584,1689262590.197720,1.204759,0.918276,-0.143528,-0.011555,0.006420,-163.484805,0.989558,3.058841,5.933588,0.174550
1690687608.513556,1689262590.205856,1.210611,0.921302,-0.143499,-0.011609,0.006439,-163.488033,0.989561,3.058825,5.933591,0.174544
1690687608.522125,1689262590.214433,1.204763,0.913270,-0.143550,-0.011549,0.006376,-163.482279,0.989555,3.058834,5.933591,0.174572
1690687608.530135,1689262590.222623,1.207183,0.918502,-0.143515,-0.011576,0.006419,-163.486219,0.989560,3.058841,5.933590,0.174559
1690687608.537771,1689262590.230747,1.203529,0.911727,-0.143620,-0.011537,0.006364,-163.474288,0.989545,3.058836,5.933592,0.174550
1690687608.603742,1689262590.247506,1.202532,0.919412,-0.143601,-0.011537,0.006432,-163.476383,0.989548,3.058838,5.933605,0.174563
1690687608.676758,1689262590.255774,1.203752,0.919764,-0.143637,-0.011549,0.006433,-163.472171,0.989542,3.058844,5.933607,0.174547
1690687608.676815,1689262590.281115,1.198391,0.922766,-0.143561,-0.011506,0.006466,-163.480967,0.989554,3.058830,5.933616,0.174550
1690687608.676857,1689262590.281171,1.206139,0.920410,-0.143592,-0.011570,0.006436,-163.477302,0.989548,3.058829,5.933626,0.174555
1690687608.677716,1689262590.297769,1.206164,0.928041,-0.143513,-0.011579,0.006503,-163.486361,0.989559,3.058820,5.933619,0.174561
1690687608.677778,1689262590.305895,1.207601,0.918843,-0.143570,-0.011580,0.006421,-163.479870,0.989551,3.058838,5.933606,0.174560
1690687608.677860,1689262590.314293,1.205563,0.915738,-0.143580,-0.011559,0.006396,-163.478805,0.989551,3.058826,5.933598,0.174552
1690687608.677924,1689262590.322548,1.200501,0.914293,-0.143543,-0.011513,0.006391,-163.483190,0.989557,3.058862,5.933581,0.174531
1690687608.677989,1689262590.339137,1.202735,0.912431,-0.143563,-0.011530,0.006372,-163.480845,0.989554,3.058837,5.933576,0.174559
1690687608.678051,1689262590.347480,1.209163,0.919119,-0.143530,-0.011594,0.006422,-163.484481,0.989557,3.058830,5.933588,0.174563
1690687608.678116,1689262590.355765,1.207230,0.916994,-0.143604,-0.011575,0.006405,-163.476009,0.989547,3.058838,5.933594,0.174547
1690687608.678169,1689262590.364157,1.199967,0.915497,-0.143613,-0.011511,0.006401,-163.474985,0.989546,3.058840,5.933603,0.174558
1690687608.679735,1689262590.372447,1.201892,0.921073,-0.143502,-0.011533,0.006448,-163.487780,0.989562,3.058846,5.933610,0.174547
1690687608.688092,1689262590.380749,1.207165,0.925139,-0.143564,-0.011584,0.006476,-163.480484,0.989552,3.058846,5.933626,0.174547
1690687608.705453,1689262590.397697,1.206372,0.930353,-0.143558,-0.011584,0.006522,-163.481218,0.989553,3.058839,5.933606,0.174555
1690687608.713280,1689262590.405755,1.200010,0.923079,-0.143627,-0.011520,0.006466,-163.473327,0.989544,3.058832,5.933617,0.174555
1690687608.722172,1689262590.414156,1.207640,0.925671,-0.143553,-0.011589,0.006480,-163.481773,0.989554,3.058841,5.933625,0.174552
1690687608.730993,1689262590.422903,1.206136,0.922341,-0.143589,-0.011572,0.006453,-163.477662,0.989549,3.058837,5.933616,0.174562
1690687608.737927,1689262590.430826,1.206672,0.923236,-0.143495,-0.011577,0.006461,-163.488595,0.989562,3.058839,5.933610,0.174558
1690687608.755055,1689262590.447490,1.206378,0.917416,-0.143627,-0.011568,0.006409,-163.473297,0.989544,3.058841,5.933584,0.174552
1690687608.763066,1689262590.455834,1.210291,0.921049,-0.143539,-0.011606,0.006437,-163.483465,0.989556,3.058848,5.933591,0.174554
1690687608.772081,1689262590.464554,1.206034,0.922581,-0.143495,-0.011571,0.006456,-163.488594,0.989562,3.058849,5.933588,0.174571
1690687608.780269,1689262590.472557,1.205387,0.920370,-0.143526,-0.011563,0.006437,-163.484984,0.989558,3.058833,5.933595,0.174567
1690687608.788395,1689262590.480885,1.197738,0.914152,-0.143657,-0.011490,0.006392,-163.469965,0.989540,3.058845,5.933610,0.174567
1690687608.796745,1689262590.489130,1.200533,0.919331,-0.143578,-0.011520,0.006434,-163.479043,0.989551,3.058846,5.933602,0.174547
1690687608.812933,1689262590.505711,1.197277,0.927029,-0.143555,-0.011501,0.006505,-163.481630,0.989554,3.058852,5.933612,0.174551
1690687608.822241,1689262590.514097,1.195887,0.919467,-0.143627,-0.011480,0.006440,-163.473402,0.989544,3.058848,5.933609,0.174547
1690687608.830466,1689262590.522654,1.156360,0.951803,-0.142801,-0.011174,0.006778,-163.569027,0.989665,3.058779,5.933662,0.174596
1690687608.846971,1689262590.539120,1.204942,0.928081,-0.143566,-0.011569,0.006504,-163.480255,0.989552,3.058849,5.933622,0.174550
1690687608.847607,1689262590.539170,1.206669,0.925674,-0.143509,-0.011580,0.006482,-163.486853,0.989560,3.058828,5.933624,0.174560
1690687608.863766,1689262590.555832,1.221635,0.916394,-0.143700,-0.011699,0.006380,-163.464774,0.989532,3.058844,5.933602,0.174524
1690687608.871984,1689262590.564185,1.211278,0.921763,-0.143556,-0.011616,0.006442,-163.481483,0.989553,3.058841,5.933587,0.174546
1690687608.888758,1689262590.581041,1.209657,0.918464,-0.143575,-0.011598,0.006415,-163.479357,0.989551,3.058842,5.933585,0.174547
1690687608.889417,1689262590.581105,1.208961,0.920870,-0.143522,-0.011594,0.006437,-163.485388,0.989558,3.058847,5.933591,0.174548
1690687608.897128,1689262590.589496,1.207262,0.922762,-0.143471,-0.011582,0.006456,-163.491314,0.989566,3.058844,5.933597,0.174570
1690687608.913591,1689262590.605832,1.210859,0.925688,-0.143502,-0.011617,0.006477,-163.487720,0.989561,3.058846,5.933594,0.174563
1690687608.922064,1689262590.614413,1.202231,0.919294,-0.143569,-0.011535,0.006431,-163.480098,0.989552,3.058842,5.933595,0.174571
1690687608.929975,1689262590.622458,1.203815,0.929761,-0.143511,-0.011561,0.006521,-163.486665,0.989560,3.058848,5.933601,0.174554
1690687608.946575,1689262590.639137,1.200183,0.927502,-0.143554,-0.011527,0.006505,-163.481752,0.989554,3.058847,5.933612,0.174552
1690687608.946715,1689262590.639193,1.202735,0.928544,-0.143514,-0.011550,0.006511,-163.486329,0.989560,3.058857,5.933610,0.174546
1690687608.963056,1689262590.655828,1.206417,0.927209,-0.143496,-0.011580,0.006495,-163.488412,0.989562,3.058838,5.933625,0.174554
1690687608.971422,1689262590.664206,1.210528,0.929389,-0.143483,-0.011618,0.006509,-163.489821,0.989563,3.058837,5.933618,0.174555
1690687608.979913,1689262590.672709,1.207663,0.917954,-0.143610,-0.011580,0.006413,-163.475276,0.989546,3.058850,5.933603,0.174553
1690687608.996703,1689262590.689178,1.211064,0.922962,-0.143542,-0.011615,0.006452,-163.483076,0.989555,3.058846,5.933577,0.174553
1690687609.005301,1689262590.697434,1.205584,0.919970,-0.143485,-0.011564,0.006434,-163.489720,0.989564,3.058852,5.933589,0.174545
1690687609.013589,1689262590.705851,1.212341,0.923424,-0.143554,-0.011627,0.006455,-163.481603,0.989553,3.058836,5.933576,0.174551
1690687609.022020,1689262590.714389,1.208987,0.911568,-0.143528,-0.011583,0.006357,-163.484841,0.989558,3.058842,5.933582,0.174578
1690687609.029907,1689262590.722416,1.209299,0.920818,-0.143509,-0.011597,0.006436,-163.486942,0.989560,3.058844,5.933594,0.174565
1690687609.038303,1689262590.730819,1.202829,0.919988,-0.143565,-0.011541,0.006437,-163.480488,0.989553,3.058845,5.933591,0.174557
1690687609.047110,1689262590.739159,1.203626,0.917049,-0.143615,-0.011544,0.006410,-163.474804,0.989546,3.058845,5.933592,0.174550
1690687609.063373,1689262590.756056,1.208738,0.924368,-0.143576,-0.011597,0.006467,-163.479150,0.989550,3.058846,5.933601,0.174543
1690687609.071855,1689262590.764714,1.204585,0.925504,-0.143505,-0.011562,0.006483,-163.487335,0.989561,3.058841,5.933616,0.174547
1690687609.080283,1689262590.772731,1.209636,0.925422,-0.143488,-0.011606,0.006476,-163.489323,0.989563,3.058838,5.933611,0.174559
1690687609.096570,1689262590.789191,1.205813,0.931760,-0.143460,-0.011580,0.006536,-163.492488,0.989567,3.058830,5.933610,0.174561
1690687609.097341,1689262590.789243,1.202696,0.918432,-0.143562,-0.011537,0.006423,-163.480877,0.989553,3.058837,5.933604,0.174559
1690687609.113634,1689262590.806141,1.210253,0.924661,-0.143468,-0.011610,0.006469,-163.491580,0.989566,3.058833,5.933596,0.174548
1690687609.122024,1689262590.814271,1.208164,0.923112,-0.143541,-0.011590,0.006457,-163.483159,0.989555,3.058849,5.933577,0.174545
1690687609.130026,1689262590.822454,1.207409,0.911159,-0.143563,-0.011569,0.006355,-163.480820,0.989553,3.058841,5.933576,0.174562
1690687609.137914,1689262590.830820,1.211035,0.923602,-0.143529,-0.011616,0.006458,-163.484576,0.989557,3.058836,5.933576,0.174547
1690687609.154796,1689262590.847450,1.192511,0.910489,-0.143573,-0.011440,0.006368,-163.479811,0.989553,3.058860,5.933571,0.174542
1690687609.163121,1689262590.855769,1.205775,0.921940,-0.143464,-0.011568,0.006451,-163.492101,0.989567,3.058844,5.933599,0.174564
1690687609.171448,1689262590.864398,1.201300,0.919113,-0.143609,-0.011527,0.006431,-163.475478,0.989547,3.058838,5.933600,0.174558
1690687609.180060,1689262590.872523,1.203570,0.918804,-0.143643,-0.011546,0.006425,-163.471535,0.989541,3.058848,5.933607,0.174542
1690687609.189133,1689262590.880765,1.196961,0.921675,-0.143510,-0.011492,0.006459,-163.486960,0.989561,3.058842,5.933612,0.174549
1690687609.205150,1689262590.897731,1.202911,0.925542,-0.143526,-0.011548,0.006485,-163.484936,0.989558,3.058840,5.933606,0.174556
1690687609.213586,1689262590.906072,1.209378,0.928918,-0.143521,-0.011608,0.006506,-163.485482,0.989558,3.058843,5.933613,0.174554
1690687609.222079,1689262590.914422,1.200788,0.919648,-0.143566,-0.011523,0.006436,-163.480463,0.989553,3.058831,5.933608,0.174553
1690687609.230051,1689262590.922502,1.211633,0.922552,-0.143561,-0.011620,0.006448,-163.480850,0.989552,3.058836,5.933607,0.174556
1690687609.247340,1689262590.939174,1.211922,0.923059,-0.143524,-0.011623,0.006452,-163.485174,0.989558,3.058846,5.933592,0.174558
1690687609.247443,1689262590.939243,1.212918,0.918585,-0.143490,-0.011625,0.006413,-163.489089,0.989563,3.058836,5.933594,0.174532
1690687609.263870,1689262590.956070,1.204982,0.911930,-0.143525,-0.011549,0.006365,-163.485179,0.989559,3.058837,5.933587,0.174543
1690687609.272253,1689262590.964448,1.208039,0.912188,-0.143597,-0.011576,0.006362,-163.476867,0.989548,3.058837,5.933578,0.174562
1690687609.279637,1689262590.972435,1.207573,0.917143,-0.143536,-0.011578,0.006407,-163.483884,0.989557,3.058836,5.933588,0.174557
1690687609.297251,1689262590.989603,1.200977,0.917305,-0.143611,-0.011521,0.006415,-163.475253,0.989546,3.058839,5.933589,0.174553
1690687609.297951,1689262590.989657,1.204319,0.920662,-0.143555,-0.011554,0.006441,-163.481656,0.989554,3.058856,5.933602,0.174567
1690687609.313328,1689262591.005832,1.202692,0.926397,-0.143545,-0.011547,0.006492,-163.482723,0.989555,3.058851,5.933601,0.174550
1690687609.322087,1689262591.014590,1.201705,0.915931,-0.143596,-0.011526,0.006403,-163.476943,0.989549,3.058826,5.933627,0.174551
1690687609.330194,1689262591.022634,1.208970,0.927740,-0.143607,-0.011604,0.006495,-163.475545,0.989546,3.058833,5.933612,0.174540
1690687609.346906,1689262591.039106,1.205159,0.923026,-0.143597,-0.011565,0.006460,-163.476690,0.989548,3.058833,5.933616,0.174553
1690687609.354582,1689262591.047498,1.205869,0.920896,-0.143527,-0.011568,0.006441,-163.484852,0.989558,3.058833,5.933605,0.174554
1690687609.363250,1689262591.056061,1.217141,0.913462,-0.143726,-0.011657,0.006361,-163.461863,0.989529,3.058845,5.933593,0.174535
1690687609.371612,1689262591.064407,1.205550,0.925625,-0.143497,-0.011571,0.006483,-163.488296,0.989562,3.058840,5.933580,0.174547
1690687609.379353,1689262591.072460,1.208419,0.916187,-0.143560,-0.011584,0.006397,-163.481122,0.989553,3.058834,5.933584,0.174553
1690687609.388660,1689262591.081211,1.207188,0.919572,-0.143464,-0.011577,0.006429,-163.492202,0.989567,3.058837,5.933579,0.174555
1690687609.405124,1689262591.097600,1.204565,0.914088,-0.143581,-0.011548,0.006383,-163.478754,0.989551,3.058846,5.933593,0.174544
1690687609.413409,1689262591.105857,1.209639,0.929980,-0.143444,-0.011611,0.006516,-163.494351,0.989569,3.058851,5.933595,0.174547
1690687609.421793,1689262591.114393,1.202949,0.926287,-0.143492,-0.011549,0.006492,-163.488869,0.989563,3.058851,5.933596,0.174553
1690687609.429659,1689262591.122427,1.200953,0.921139,-0.143560,-0.011526,0.006449,-163.481152,0.989554,3.058847,5.933617,0.174557
1690687609.438788,1689262591.131328,1.197234,0.926995,-0.143479,-0.011500,0.006505,-163.490408,0.989565,3.058842,5.933617,0.174542
1690687609.455359,1689262591.147791,1.204176,0.922106,-0.143630,-0.011555,0.006453,-163.472899,0.989543,3.058849,5.933619,0.174528
1690687609.463002,1689262591.155805,1.207237,0.927732,-0.143599,-0.011589,0.006498,-163.476426,0.989547,3.058825,5.933618,0.174560
1690687609.471584,1689262591.164206,1.204269,0.922976,-0.143574,-0.011557,0.006461,-163.479377,0.989551,3.058834,5.933617,0.174557
1690687609.480001,1689262591.172557,1.218896,0.921867,-0.143619,-0.011682,0.006432,-163.474080,0.989543,3.058847,5.933611,0.174534
1690687609.496758,1689262591.189280,1.205466,0.925496,-0.143483,-0.011570,0.006482,-163.489865,0.989564,3.058833,5.933596,0.174549
1690687609.505437,1689262591.197912,1.214128,0.913602,-0.143625,-0.011631,0.006367,-163.473565,0.989543,3.058857,5.933594,0.174538
1690687609.513640,1689262591.206050,1.207188,0.921700,-0.143457,-0.011580,0.006447,-163.492942,0.989568,3.058849,5.933587,0.174535
1690687609.525017,1689262591.214405,1.204350,0.920905,-0.143495,-0.011554,0.006444,-163.488631,0.989563,3.058842,5.933588,0.174564
1690687609.547180,1689262591.230810,1.206018,0.926258,-0.143455,-0.011575,0.006488,-163.493108,0.989568,3.058842,5.933590,0.174554
1690687609.554966,1689262591.247506,1.206825,0.915438,-0.143593,-0.011570,0.006392,-163.477310,0.989549,3.058854,5.933599,0.174573
1690687609.555700,1689262591.247563,1.201608,0.914393,-0.143544,-0.011523,0.006390,-163.483046,0.989556,3.058840,5.933606,0.174555
1690687609.562733,1689262591.255776,1.199289,0.916531,-0.143612,-0.011506,0.006411,-163.475175,0.989546,3.058852,5.933604,0.174555
1690687609.571556,1689262591.264162,1.207492,0.922949,-0.143545,-0.011584,0.006457,-163.482715,0.989555,3.058845,5.933614,0.174550
1690687609.579983,1689262591.272776,1.198205,0.924659,-0.143532,-0.011506,0.006483,-163.484331,0.989558,3.058843,5.933607,0.174548
1690687609.588285,1689262591.281144,1.205383,0.925102,-0.143591,-0.011569,0.006477,-163.477373,0.989548,3.058832,5.933621,0.174553
1690687609.606267,1689262591.297749,1.207508,0.923626,-0.143505,-0.011585,0.006463,-163.487390,0.989561,3.058837,5.933603,0.174545
1690687609.615200,1689262591.306119,1.207799,0.921612,-0.143465,-0.011585,0.006446,-163.492041,0.989567,3.058848,5.933601,0.174551
1690687609.621988,1689262591.314323,1.206281,0.915537,-0.143570,-0.011565,0.006394,-163.479928,0.989552,3.058846,5.933590,0.174544
1690687609.629933,1689262591.322473,1.206669,0.916479,-0.143522,-0.011569,0.006402,-163.485534,0.989559,3.058847,5.933580,0.174546
1690687609.638377,1689262591.330842,1.203931,0.917364,-0.143504,-0.011546,0.006413,-163.487539,0.989562,3.058833,5.933587,0.174553
1690687609.646927,1689262591.339311,1.208556,0.916442,-0.143563,-0.011586,0.006399,-163.480703,0.989553,3.058843,5.933585,0.174560
1690687609.663830,1689262591.356229,1.214439,0.909191,-0.143729,-0.011628,0.006327,-163.461572,0.989529,3.058857,5.933599,0.174551
1690687609.671850,1689262591.364407,1.205224,0.918277,-0.143576,-0.011559,0.006419,-163.479232,0.989551,3.058851,5.933609,0.174562
1690687609.680390,1689262591.372741,1.195493,0.916721,-0.143566,-0.011473,0.006418,-163.480523,0.989554,3.058832,5.933614,0.174545
1690687609.696897,1689262591.389363,1.202664,0.923071,-0.143581,-0.011543,0.006463,-163.478647,0.989550,3.058843,5.933617,0.174555
1690687609.706143,1689262591.397731,1.202299,0.923395,-0.143569,-0.011540,0.006467,-163.480031,0.989552,3.058841,5.933619,0.174535
1690687609.713794,1689262591.406200,1.203593,0.921326,-0.143578,-0.011549,0.006447,-163.478945,0.989551,3.058842,5.933619,0.174542
1690687609.721830,1689262591.414169,1.202823,0.918203,-0.143572,-0.011538,0.006421,-163.479764,0.989552,3.058837,5.933617,0.174558
1690687609.730396,1689262591.422641,1.213675,0.913863,-0.143677,-0.011627,0.006369,-163.467539,0.989536,3.058850,5.933604,0.174536
1690687609.760058,1689262591.439163,1.211387,0.924842,-0.143561,-0.011621,0.006468,-163.480838,0.989552,3.058841,5.933589,0.174548
1690687609.763609,1689262591.455839,1.160586,0.947526,-0.142731,-0.011205,0.006737,-163.577207,0.989675,3.058779,5.933619,0.174603
1690687609.764004,1689262591.455895,1.202906,0.917041,-0.143498,-0.011537,0.006412,-163.488342,0.989563,3.058841,5.933576,0.174546
1690687609.771696,1689262591.464404,1.202416,0.919581,-0.143479,-0.011536,0.006435,-163.490431,0.989565,3.058843,5.933592,0.174560
1690687609.780126,1689262591.472487,1.206939,0.918102,-0.143555,-0.011574,0.006415,-163.481644,0.989554,3.058837,5.933603,0.174559
1690687609.787908,1689262591.480747,1.197675,0.911927,-0.143557,-0.011486,0.006374,-163.481638,0.989555,3.058834,5.933600,0.174563
1690687609.805490,1689262591.497745,1.201547,0.917120,-0.143585,-0.011526,0.006413,-163.478204,0.989550,3.058844,5.933606,0.174552
1690687609.813146,1689262591.505768,1.198744,0.926542,-0.143535,-0.011513,0.006499,-163.483926,0.989557,3.058848,5.933610,0.174552
1690687609.822029,1689262591.514467,1.203770,0.927804,-0.143530,-0.011558,0.006503,-163.484487,0.989557,3.058842,5.933604,0.174549
1690687609.830422,1689262591.522481,1.203127,0.928231,-0.143544,-0.011553,0.006508,-163.482801,0.989555,3.058835,5.933626,0.174551
1690687609.838957,1689262591.530830,1.203353,0.925300,-0.143546,-0.011552,0.006482,-163.482653,0.989555,3.058822,5.933616,0.174548
1690687609.855422,1689262591.547474,1.205872,0.925120,-0.143523,-0.011573,0.006478,-163.485261,0.989558,3.058828,5.933609,0.174559
1690687609.863389,1689262591.555830,1.210572,0.925135,-0.143474,-0.011613,0.006473,-163.490929,0.989565,3.058846,5.933604,0.174531
1690687609.871759,1689262591.564175,1.192821,0.919318,-0.143459,-0.011453,0.006445,-163.492917,0.989569,3.058855,5.933587,0.174544
1690687609.880492,1689262591.572575,1.207447,0.922577,-0.143535,-0.011583,0.006454,-163.483957,0.989556,3.058846,5.933585,0.174535
1690687609.897119,1689262591.589597,1.205559,0.915435,-0.143558,-0.011558,0.006394,-163.481327,0.989554,3.058847,5.933589,0.174553
1690687609.897881,1689262591.589661,1.209467,0.923642,-0.143469,-0.011602,0.006461,-163.491545,0.989566,3.058840,5.933602,0.174548
1690687609.913845,1689262591.605803,1.205648,0.919950,-0.143549,-0.011565,0.006433,-163.482326,0.989555,3.058843,5.933603,0.174553
1690687609.922963,1689262591.614404,1.205801,0.923831,-0.143560,-0.011571,0.006466,-163.481060,0.989553,3.058846,5.933608,0.174558
1690687609.930915,1689262591.622744,1.202928,0.927519,-0.143508,-0.011550,0.006502,-163.486984,0.989560,3.058850,5.933612,0.174544
1690687609.947653,1689262591.639143,1.199579,0.917286,-0.143647,-0.011510,0.006417,-163.471047,0.989541,3.058853,5.933609,0.174539
1690687609.954728,1689262591.647468,1.195342,0.919356,-0.143573,-0.011475,0.006441,-163.479640,0.989552,3.058854,5.933608,0.174548
1690687609.963209,1689262591.655811,1.203563,0.928583,-0.143502,-0.011557,0.006511,-163.487685,0.989561,3.058836,5.933618,0.174535
1690687609.971569,1689262591.664086,1.208693,0.920769,-0.143566,-0.011592,0.006436,-163.480277,0.989552,3.058840,5.933609,0.174547
1690687609.980147,1689262591.672738,1.205379,0.925953,-0.143527,-0.011570,0.006485,-163.484861,0.989558,3.058835,5.933602,0.174552
1690687609.998125,1689262591.689180,1.205606,0.918250,-0.143599,-0.011563,0.006418,-163.476590,0.989548,3.058831,5.933595,0.174538
1690687610.005870,1689262591.697844,1.206140,0.926316,-0.143470,-0.011576,0.006488,-163.491431,0.989566,3.058845,5.933588,0.174554
1690687610.014938,1689262591.706051,1.213173,0.923691,-0.143472,-0.011634,0.006457,-163.491154,0.989565,3.058846,5.933583,0.174551
1690687610.023443,1689262591.714431,1.201416,0.917909,-0.143512,-0.011525,0.006421,-163.486715,0.989561,3.058843,5.933578,0.174559
1690687610.030102,1689262591.722438,1.203253,0.917904,-0.143573,-0.011542,0.006418,-163.479646,0.989552,3.058840,5.933590,0.174555
1690687610.038215,1689262591.730732,1.201177,0.921608,-0.143509,-0.011528,0.006453,-163.486947,0.989561,3.058857,5.933599,0.174555
1690687610.055476,1689262591.747475,1.206551,0.925925,-0.143529,-0.011580,0.006484,-163.484604,0.989557,3.058847,5.933612,0.174545
1690687610.064105,1689262591.756047,1.205749,0.920726,-0.143637,-0.011567,0.006439,-163.472152,0.989542,3.058848,5.933604,0.174541
1690687610.072003,1689262591.764416,1.204147,0.922661,-0.143595,-0.011555,0.006458,-163.476977,0.989548,3.058849,5.933616,0.174542
1690687610.080875,1689262591.772752,1.204559,0.925795,-0.143634,-0.011563,0.006484,-163.472445,0.989542,3.058841,5.933609,0.174544
1690687610.088863,1689262591.781152,1.207375,0.927993,-0.143521,-0.011590,0.006501,-163.485447,0.989558,3.058835,5.933611,0.174555
1690687610.105561,1689262591.797699,1.211346,0.921672,-0.143609,-0.011617,0.006440,-163.475310,0.989545,3.058831,5.933606,0.174556
1690687610.113645,1689262591.806045,1.206126,0.923793,-0.143585,-0.011574,0.006465,-163.478132,0.989549,3.058827,5.933593,0.174553
1690687610.121949,1689262591.814175,1.194950,0.916765,-0.143607,-0.011469,0.006418,-163.475769,0.989548,3.058829,5.933589,0.174543
1690687610.129836,1689262591.822383,1.185176,0.917170,-0.143600,-0.011385,0.006434,-163.476651,0.989549,3.058790,5.933572,0.174557
1690687610.146596,1689262591.839148,1.087397,0.948481,-0.142907,-0.010575,0.006835,-163.557484,0.989656,3.058652,5.933566,0.174615
1690687610.154656,1689262591.847398,0.999525,0.957885,-0.142721,-0.009826,0.007027,-163.579735,0.989689,3.058480,5.933505,0.174669
1690687610.163190,1689262591.855765,0.866156,0.961617,-0.142426,-0.008677,0.007229,-163.615152,0.989741,3.058228,5.933444,0.174741
1690687610.171778,1689262591.864417,0.717384,0.935892,-0.142519,-0.007361,0.007191,-163.605960,0.989739,3.057904,5.933337,0.174730
1690687610.179887,1689262591.872749,0.537746,0.919377,-0.142387,-0.005787,0.007273,-163.623020,0.989768,3.057511,5.933188,0.174746
1690687610.196619,1689262591.889173,0.389275,0.897806,-0.142471,-0.004479,0.007271,-163.614602,0.989762,3.057083,5.933048,0.174787
1690687610.204875,1689262591.897433,0.244661,0.889199,-0.142429,-0.003219,0.007376,-163.620658,0.989772,3.056583,5.932936,0.174877
1690687610.213697,1689262591.906207,0.097776,0.872814,-0.143055,-0.001934,0.007416,-163.549487,0.989685,3.055957,5.932769,0.174922
1690687610.222018,1689262591.914393,-0.058380,0.894427,-0.142947,-0.000612,0.007798,-163.563150,0.989699,3.055196,5.932652,0.174964
1690687610.230194,1689262591.922737,-0.228313,0.932326,-0.142604,0.000812,0.008337,-163.604145,0.989744,3.054386,5.932505,0.175012
1690687610.247300,1689262591.939164,-0.380507,0.974459,-0.141766,0.002082,0.008888,-163.702483,0.989858,3.053594,5.932286,0.175079
1690687610.255356,1689262591.947504,-0.558550,0.978936,-0.141380,0.003618,0.009146,-163.748516,0.989906,3.052663,5.931977,0.175177
1690687610.263443,1689262591.955832,-0.737822,0.992487,-0.141383,0.005150,0.009484,-163.749624,0.989896,3.051657,5.931614,0.175294
1690687610.271860,1689262591.964187,-0.869972,0.924494,-0.141707,0.006372,0.009061,-163.712732,0.989847,3.050811,5.931150,0.175251
1690687610.280542,1689262591.972588,-1.045760,0.908991,-0.140759,0.007919,0.009137,-163.823572,0.989970,3.049688,5.930741,0.175445
1690687610.288433,1689262591.980771,-1.186154,0.842059,-0.141397,0.009208,0.008737,-163.750031,0.989872,3.048526,5.930378,0.175570
1690687610.305743,1689262591.997749,-1.292845,0.772821,-0.142365,0.010207,0.008280,-163.637857,0.989727,3.047043,5.929993,0.175594
1690687610.313048,1689262592.005777,-1.372494,0.800327,-0.142952,0.010856,0.008623,-163.570540,0.989632,3.045435,5.929647,0.175615
1690687610.322121,1689262592.014206,-1.450826,0.864630,-0.143208,0.011450,0.009279,-163.542146,0.989583,3.043653,5.929245,0.175626
1690687610.330072,1689262592.022439,-1.524339,0.890476,-0.143467,0.012050,0.009597,-163.512848,0.989535,3.041418,5.928700,0.175553
1690687610.338388,1689262592.030828,-1.389050,0.910519,-0.144042,0.010851,0.009607,-163.445621,0.989465,3.039096,5.928063,0.175532
1690687610.355545,1689262592.047477,-1.355430,0.883464,-0.144036,0.010595,0.009331,-163.445844,0.989472,3.036800,5.927309,0.175522
1690687610.363317,1689262592.055869,-1.213062,0.859049,-0.143920,0.009397,0.008941,-163.458199,0.989504,3.034087,5.926332,0.175462
1690687610.371492,1689262592.064262,-1.130839,0.826894,-0.143193,0.008734,0.008554,-163.541623,0.989619,3.031346,5.925451,0.175399
1690687610.379680,1689262592.072476,-0.998406,0.880514,-0.141410,0.007539,0.008838,-163.747674,0.989883,3.028299,5.924428,0.175409
1690687610.397255,1689262592.089566,-0.884638,0.858550,-0.142730,0.006572,0.008517,-163.593916,0.989703,3.025430,5.923462,0.175270
1690687610.397938,1689262592.089619,-0.804321,0.910137,-0.141521,0.005825,0.008855,-163.733714,0.989879,3.022261,5.922555,0.175336
1690687610.413434,1689262592.105818,-0.756058,0.962054,-0.141533,0.005343,0.009244,-163.732289,0.989876,3.019246,5.921769,0.175384
1690687610.422032,1689262592.114400,-0.680308,0.942951,-0.141822,0.004710,0.008987,-163.698209,0.989840,3.016087,5.920842,0.175278
1690687610.430074,1689262592.122499,-0.696527,0.937691,-0.142526,0.004850,0.008965,-163.616778,0.989739,3.012998,5.920031,0.175349
1690687610.447243,1689262592.139149,-0.630389,0.941915,-0.142013,0.004278,0.008917,-163.675719,0.989816,3.009765,5.919075,0.175297
1690687610.455359,1689262592.147511,-0.689826,0.885053,-0.142839,0.004855,0.008504,-163.580195,0.989697,3.006649,5.918197,0.175373
1690687610.463490,1689262592.155828,-0.715211,0.840961,-0.142878,0.005129,0.008155,-163.575650,0.989693,3.003545,5.917239,0.175381
1690687610.472114,1689262592.164081,-0.738491,0.808702,-0.143106,0.005368,0.007906,-163.549170,0.989661,3.000359,5.916208,0.175349
1690687610.480370,1689262592.172748,-0.672168,0.811687,-0.143036,0.004792,0.007849,-163.556922,0.989675,2.996982,5.915279,0.175455
1690687610.488394,1689262592.180842,-0.591628,0.796789,-0.143497,0.004112,0.007622,-163.502980,0.989613,2.993692,5.914219,0.175277
1690687610.505338,1689262592.197577,-0.462602,0.814534,-0.142622,0.002982,0.007611,-163.603487,0.989743,2.990084,5.913115,0.175323
1690687610.513474,1689262592.205875,-0.210704,0.857300,-0.142094,0.000757,0.007667,-163.662965,0.989823,2.986417,5.912131,0.175304
1690687610.522794,1689262592.214444,0.004647,0.809247,-0.142706,-0.001048,0.006984,-163.590681,0.989740,2.982618,5.910930,0.175177
1690687610.530414,1689262592.222492,0.259794,0.817683,-0.142184,-0.003259,0.006741,-163.649207,0.989812,2.978860,5.909834,0.175043
1690687610.538037,1689262592.230751,0.554623,0.792140,-0.142760,-0.005777,0.006151,-163.580365,0.989721,2.975088,5.908643,0.174975
1690687610.555583,1689262592.247757,0.816653,0.843410,-0.142588,-0.008103,0.006268,-163.597831,0.989729,2.971240,5.907550,0.174929
1690687610.562772,1689262592.255811,1.032229,0.870406,-0.142038,-0.009996,0.006238,-163.659380,0.989791,2.967411,5.906466,0.174849
1690687610.571456,1689262592.264166,1.151423,0.963160,-0.141350,-0.011135,0.006899,-163.736932,0.989873,2.963755,5.905466,0.175050
1690687610.579867,1689262592.272714,1.098926,0.991188,-0.141636,-0.010718,0.007203,-163.704041,0.989835,2.960539,5.904778,0.175091
1690687610.597079,1689262592.289489,1.032519,1.006647,-0.141527,-0.010163,0.007420,-163.717184,0.989854,2.957706,5.903972,0.175032
1690687610.605774,1689262592.297754,0.857074,0.994304,-0.141205,-0.008630,0.007533,-163.756282,0.989914,2.954855,5.903221,0.175041
1690687610.613465,1689262592.305876,0.751686,0.872645,-0.141317,-0.007570,0.006611,-163.745320,0.989913,2.952122,5.902266,0.175139
1690687610.622863,1689262592.314096,0.658499,0.861792,-0.141185,-0.006751,0.006633,-163.761464,0.989938,2.949219,5.901446,0.174998
1690687610.630086,1689262592.322779,0.748595,0.862386,-0.141013,-0.007529,0.006529,-163.780639,0.989958,2.945963,5.900303,0.174931
1690687610.638315,1689262592.330932,0.706633,0.723250,-0.141266,-0.006996,0.005377,-163.752645,0.989932,2.943153,5.899402,0.174951
1690687610.655936,1689262592.347479,0.523292,0.707179,-0.141837,-0.005396,0.005461,-163.687946,0.989860,2.940654,5.898628,0.175086
1690687610.663764,1689262592.355904,0.385278,0.724224,-0.141953,-0.004225,0.005779,-163.675431,0.989848,2.937999,5.897901,0.174959
1690687610.671991,1689262592.364383,0.244279,0.717204,-0.142403,-0.003001,0.005891,-163.624271,0.989787,2.935381,5.897164,0.175084
1690687610.680125,1689262592.372498,0.200677,0.703279,-0.142774,-0.002610,0.005824,-163.581608,0.989735,2.932575,5.896455,0.175163
1690687610.688946,1689262592.380851,0.256753,0.768952,-0.142658,-0.003175,0.006322,-163.594506,0.989747,2.929584,5.895637,0.175204
1690687610.705345,1689262592.397754,0.319253,0.756725,-0.142206,-0.003697,0.006140,-163.646434,0.989811,2.926626,5.894734,0.175090
1690687610.714005,1689262592.406112,0.499171,0.723226,-0.142006,-0.005208,0.005629,-163.668516,0.989836,2.923436,5.893838,0.175098
1690687610.721661,1689262592.414134,0.701703,0.784062,-0.141506,-0.007030,0.005906,-163.724548,0.989895,2.920281,5.892842,0.175080
1690687610.730140,1689262592.422505,0.752344,0.784479,-0.141299,-0.007467,0.005849,-163.748092,0.989922,2.917283,5.891890,0.174901
1690687610.746858,1689262592.439273,0.709339,0.883046,-0.141474,-0.007218,0.006752,-163.727406,0.989893,2.911629,5.890388,0.175119
1690687610.763217,1689262592.455835,0.636606,0.872468,-0.141919,-0.006580,0.006748,-163.676641,0.989833,2.908963,5.889521,0.175113
1690687610.771088,1689262592.464118,0.577803,0.859856,-0.141849,-0.006056,0.006712,-163.685263,0.989847,2.906016,5.888737,0.175191
1690687610.780091,1689262592.472601,0.565972,0.871685,-0.142133,-0.005970,0.006827,-163.652405,0.989806,2.903227,5.887938,0.175266
1690687610.788020,1689262592.480772,0.607403,0.832387,-0.142356,-0.006281,0.006435,-163.626499,0.989775,2.900058,5.886923,0.175100
1690687610.805270,1689262592.497739,0.586335,0.813238,-0.142032,-0.006073,0.006298,-163.664299,0.989823,2.897403,5.886147,0.175068
1690687610.813184,1689262592.505790,0.411193,0.743225,-0.142764,-0.004478,0.005907,-163.581235,0.989729,2.894715,5.885333,0.175162
1690687610.821441,1689262592.514105,0.283920,0.750928,-0.143348,-0.003392,0.006130,-163.514449,0.989648,2.892154,5.884660,0.175218
1690687610.830289,1689262592.522452,0.199056,0.730723,-0.144116,-0.002638,0.006060,-163.426167,0.989539,2.889357,5.883843,0.175333
1690687610.839677,1689262592.530847,0.099048,0.761710,-0.143560,-0.001810,0.006454,-163.491120,0.989619,2.886628,5.883089,0.175237
1690687610.855368,1689262592.547466,0.133538,0.721527,-0.144111,-0.002061,0.006063,-163.427208,0.989541,2.883621,5.882214,0.175368
1690687610.863518,1689262592.555841,0.175992,0.777895,-0.143580,-0.002495,0.006497,-163.488309,0.989614,2.880643,5.881369,0.175256
1690687610.871981,1689262592.564172,0.286982,0.788329,-0.143714,-0.003467,0.006448,-163.471898,0.989592,2.877405,5.880398,0.175243
1690687610.879528,1689262592.572402,0.372065,0.823567,-0.142856,-0.004240,0.006649,-163.570485,0.989712,2.874201,5.879440,0.175186
1690687610.897297,1689262592.589509,0.591762,0.934327,-0.142539,-0.006274,0.007334,-163.604847,0.989742,2.867840,5.877601,0.175311
1690687610.913630,1689262592.605807,0.543698,0.947711,-0.142987,-0.005879,0.007506,-163.553244,0.989679,2.864802,5.876743,0.175414
1690687610.922111,1689262592.614262,0.489862,1.002552,-0.143131,-0.005483,0.008047,-163.536753,0.989656,2.862032,5.876134,0.175492
1690687610.930888,1689262592.622930,0.469294,1.010256,-0.143850,-0.005321,0.008135,-163.453690,0.989552,2.859082,5.875137,0.175475
1690687610.947290,1689262592.639601,0.407115,1.002939,-0.143824,-0.004775,0.008150,-163.457342,0.989558,2.856120,5.874385,0.175389
1690687610.947878,1689262592.639667,0.459398,0.998999,-0.143766,-0.005221,0.008051,-163.463522,0.989565,2.852935,5.873331,0.175479
1690687610.963681,1689262592.656081,0.538158,0.917307,-0.143813,-0.005799,0.007246,-163.457929,0.989561,2.849932,5.872425,0.175412
1690687610.971553,1689262592.664094,0.446068,0.889350,-0.143746,-0.004968,0.007121,-163.466529,0.989576,2.847201,5.871515,0.175355
1690687610.980215,1689262592.672734,0.296317,0.821617,-0.144033,-0.003592,0.006723,-163.434818,0.989544,2.844512,5.870703,0.175382
1690687610.997020,1689262592.689214,0.248039,0.833969,-0.144463,-0.003193,0.006889,-163.385379,0.989481,2.841785,5.869896,0.175597
1690687611.006219,1689262592.697954,0.164784,0.865566,-0.144192,-0.002512,0.007267,-163.417276,0.989520,2.838871,5.869112,0.175569
1690687611.015039,1689262592.706067,0.197019,0.859258,-0.144464,-0.002785,0.007171,-163.385543,0.989480,2.836005,5.868259,0.175675
1690687611.021910,1689262592.714222,0.196759,0.868308,-0.144470,-0.002794,0.007250,-163.384779,0.989479,2.832978,5.867364,0.175734
1690687611.030932,1689262592.722780,0.285257,0.944939,-0.143956,-0.003651,0.007802,-163.443325,0.989547,2.829869,5.866498,0.175783
1690687611.038348,1689262592.730748,0.440578,0.857370,-0.144354,-0.004885,0.006848,-163.396346,0.989490,2.826693,5.865667,0.175527
1690687611.055656,1689262592.747494,0.514970,0.868430,-0.144426,-0.005541,0.006850,-163.387308,0.989476,2.823542,5.864733,0.175485
1690687611.063233,1689262592.755761,0.623134,0.917731,-0.144238,-0.006536,0.007140,-163.407875,0.989496,2.820258,5.863833,0.175565
1690687611.072195,1689262592.764386,0.617460,0.980972,-0.144486,-0.006569,0.007692,-163.378832,0.989455,2.817223,5.862943,0.175667
1690687611.080784,1689262592.772834,0.704021,0.992791,-0.144054,-0.007328,0.007688,-163.427938,0.989513,2.814116,5.862027,0.175574
1690687611.088826,1689262592.781080,0.607725,1.002964,-0.144455,-0.006512,0.007894,-163.382361,0.989458,2.811204,5.861164,0.175743
1690687611.105903,1689262592.797807,0.771110,0.970769,-0.144242,-0.007881,0.007412,-163.405760,0.989483,2.808011,5.860243,0.175776
1690687611.113890,1689262592.806056,0.690988,0.958574,-0.144624,-0.007177,0.007404,-163.362335,0.989433,2.805090,5.859354,0.175676
1690687611.122017,1689262592.814224,0.695543,0.959895,-0.143432,-0.007209,0.007419,-163.500314,0.989606,2.802215,5.858426,0.175718
1690687611.130095,1689262592.822435,0.596386,0.900544,-0.143993,-0.006282,0.007027,-163.436677,0.989534,2.799512,5.857533,0.175839
1690687611.138644,1689262592.830842,0.484576,0.905070,-0.142950,-0.005314,0.007212,-163.558309,0.989689,2.796748,5.856794,0.175826
1690687611.155032,1689262592.847466,0.451801,0.849546,-0.143535,-0.004966,0.006771,-163.491137,0.989610,2.793939,5.856004,0.175848
1690687611.163672,1689262592.855817,0.416867,0.871386,-0.143470,-0.004691,0.007003,-163.498819,0.989619,2.791112,5.855199,0.175962
1690687611.171613,1689262592.864183,0.426503,0.869412,-0.143801,-0.004774,0.006973,-163.460461,0.989571,2.788156,5.854386,0.176182
1690687611.180424,1689262592.872735,0.383460,0.944921,-0.143302,-0.004494,0.007681,-163.518242,0.989639,2.785223,5.853535,0.176133
1690687611.197205,1689262592.889383,0.460860,0.936209,-0.144142,-0.005158,0.007505,-163.420358,0.989515,2.782219,5.852745,0.176132
1690687611.206212,1689262592.897732,0.439721,0.978482,-0.143412,-0.005022,0.007900,-163.504804,0.989619,2.779228,5.851857,0.176031
1690687611.213934,1689262592.906056,0.518370,0.914575,-0.143879,-0.005625,0.007247,-163.450436,0.989553,2.776156,5.851022,0.176093
1690687611.222920,1689262592.914578,0.585320,0.993939,-0.143191,-0.006297,0.007852,-163.529052,0.989644,2.773196,5.850162,0.176111
1690687611.230380,1689262592.922507,0.584842,0.988518,-0.143340,-0.006288,0.007805,-163.511831,0.989623,2.770103,5.849160,0.176153
1690687611.238914,1689262592.930839,0.625455,0.986601,-0.142704,-0.006631,0.007742,-163.585103,0.989713,2.767154,5.848306,0.176126
1690687611.255250,1689262592.947453,0.621326,0.972949,-0.143349,-0.006583,0.007625,-163.510547,0.989621,2.764023,5.847359,0.176165
1690687611.263888,1689262592.955830,0.661646,0.992477,-0.143159,-0.006955,0.007745,-163.532011,0.989645,2.761092,5.846569,0.176160
1690687611.271969,1689262592.964157,0.664075,0.959972,-0.142919,-0.006933,0.007463,-163.559968,0.989682,2.758049,5.845628,0.176162
1690687611.280221,1689262592.972486,0.635708,0.922345,-0.142995,-0.006642,0.007172,-163.551716,0.989675,2.755189,5.844773,0.176195
1690687611.288905,1689262592.981182,0.642083,0.959832,-0.143132,-0.006745,0.007487,-163.535509,0.989652,2.752166,5.843925,0.176370
1690687611.307378,1689262592.997737,0.589130,0.933589,-0.143205,-0.006255,0.007326,-163.527679,0.989646,2.749297,5.843075,0.176307
1690687611.313763,1689262593.005787,0.583976,0.938673,-0.143008,-0.006215,0.007378,-163.550589,0.989675,2.746270,5.842200,0.176337
1690687611.322783,1689262593.014419,0.510860,0.972581,-0.143331,-0.005629,0.007760,-163.513607,0.989628,2.743407,5.841397,0.176353
1690687611.330432,1689262593.022495,0.530728,0.969684,-0.143227,-0.005796,0.007711,-163.525522,0.989643,2.740460,5.840604,0.176380
1690687611.347233,1689262593.039220,0.488016,0.955985,-0.143273,-0.005410,0.007646,-163.520646,0.989639,2.737556,5.839712,0.176359
1690687611.355432,1689262593.047408,0.523315,0.962371,-0.143347,-0.005724,0.007656,-163.511708,0.989626,2.734561,5.838804,0.176405
1690687611.363534,1689262593.055826,0.504033,0.954497,-0.143499,-0.005548,0.007612,-163.494331,0.989606,2.731685,5.837930,0.176425
1690687611.371895,1689262593.064220,0.542088,0.904284,-0.143736,-0.005816,0.007129,-163.466858,0.989573,2.728568,5.836918,0.176393
1690687611.379670,1689262593.072542,0.531185,0.890009,-0.143334,-0.005701,0.007022,-163.513515,0.989633,2.725628,5.836087,0.176441
1690687611.388641,1689262593.081045,0.597870,0.908188,-0.143839,-0.006303,0.007092,-163.454408,0.989556,2.722551,5.835189,0.176522
1690687611.404921,1689262593.097481,0.597807,0.944277,-0.142973,-0.006342,0.007409,-163.554464,0.989679,2.719616,5.834336,0.176532
1690687611.413841,1689262593.105824,0.649454,0.971130,-0.143204,-0.006823,0.007575,-163.527033,0.989641,2.716504,5.833477,0.176539
1690687611.422483,1689262593.114487,0.635814,1.009738,-0.143305,-0.006754,0.007925,-163.515172,0.989624,2.713465,5.832676,0.176512
1690687611.430716,1689262593.122575,0.643960,0.959975,-0.143724,-0.006765,0.007482,-163.466919,0.989566,2.710375,5.831770,0.176529
1690687611.438383,1689262593.130731,0.639393,0.996680,-0.142839,-0.006765,0.007811,-163.569240,0.989692,2.707455,5.830874,0.176539
1690687611.455307,1689262593.147475,0.592658,0.958460,-0.143578,-0.006319,0.007534,-163.484338,0.989590,2.704635,5.830102,0.176626
1690687611.463679,1689262593.155864,0.590059,0.983525,-0.143317,-0.006326,0.007756,-163.514424,0.989626,2.701706,5.829155,0.176598
1690687611.471642,1689262593.164078,0.535799,0.913498,-0.143234,-0.005769,0.007219,-163.524995,0.989646,2.698884,5.828265,0.176613
1690687611.480266,1689262593.172428,0.495291,0.958540,-0.142984,-0.005474,0.007660,-163.553995,0.989680,2.695952,5.827363,0.176744
1690687611.488878,1689262593.181137,0.478179,0.919318,-0.143654,-0.005282,0.007340,-163.476744,0.989587,2.693077,5.826557,0.176679
1690687611.497242,1689262593.189398,0.443595,0.930649,-0.142681,-0.004990,0.007486,-163.589682,0.989728,2.690163,5.825638,0.176656
1690687611.513853,1689262593.206058,0.415725,0.883246,-0.143249,-0.004695,0.007108,-163.524358,0.989650,2.687443,5.824787,0.176769
1690687611.522194,1689262593.214530,0.458413,0.900617,-0.143288,-0.005085,0.007205,-163.519412,0.989642,2.684432,5.823833,0.176861
1690687611.529773,1689262593.222466,0.433023,0.876919,-0.143509,-0.004838,0.007031,-163.494199,0.989612,2.681397,5.822921,0.176829
1690687611.538548,1689262593.230814,0.500771,0.878406,-0.143630,-0.005426,0.006958,-163.479611,0.989592,2.678360,5.822086,0.176801
1690687611.555295,1689262593.247508,0.474493,0.917924,-0.143913,-0.005251,0.007331,-163.446893,0.989549,2.675310,5.821206,0.176795
1690687611.562783,1689262593.255761,0.566965,0.977775,-0.143779,-0.006123,0.007732,-163.461244,0.989561,2.672271,5.820373,0.176813
1690687611.571069,1689262593.263988,0.546199,1.019508,-0.143269,-0.005992,0.008122,-163.520192,0.989632,2.669327,5.819629,0.176851
1690687611.579412,1689262593.272300,0.587261,1.005012,-0.144248,-0.006336,0.007939,-163.406565,0.989489,2.666303,5.818760,0.176976
1690687611.588751,1689262593.281020,0.589522,1.063566,-0.143666,-0.006425,0.008445,-163.473480,0.989569,2.663346,5.817934,0.176981
1690687611.605130,1689262593.297559,0.578772,0.989891,-0.144013,-0.006242,0.007821,-163.433934,0.989525,2.660349,5.816926,0.176956
1690687611.613842,1689262593.305871,0.566631,0.996258,-0.143596,-0.006142,0.007893,-163.482280,0.989586,2.657556,5.816056,0.176925
1690687611.621995,1689262593.314198,0.526319,0.942074,-0.144090,-0.005730,0.007473,-163.425807,0.989520,2.654742,5.815131,0.176942
1690687611.630329,1689262593.322555,0.514075,0.904501,-0.143755,-0.005574,0.007166,-163.464823,0.989572,2.651975,5.814273,0.177048
1690687611.647191,1689262593.339414,0.420135,0.862262,-0.144676,-0.004717,0.006915,-163.359212,0.989444,2.649141,5.813448,0.177139
1690687611.647954,1689262593.339474,0.453234,0.935084,-0.144593,-0.005094,0.007502,-163.368199,0.989450,2.646191,5.812643,0.177138
1690687611.664100,1689262593.356062,0.395601,0.944292,-0.144780,-0.004609,0.007654,-163.347038,0.989424,2.643291,5.811799,0.177224
1690687611.672246,1689262593.364384,0.405496,0.984814,-0.144314,-0.004742,0.007993,-163.400721,0.989488,2.640280,5.810915,0.177173
1690687611.680816,1689262593.372880,0.400753,1.001912,-0.144979,-0.004728,0.008144,-163.323639,0.989390,2.637282,5.810230,0.177192
1690687611.697270,1689262593.389410,0.467425,0.978450,-0.144761,-0.005272,0.007858,-163.348399,0.989422,2.634259,5.809369,0.177258
1690687611.705998,1689262593.397771,0.483201,0.984204,-0.144797,-0.005416,0.007887,-163.344058,0.989415,2.631226,5.808451,0.177255
1690687611.713922,1689262593.406062,0.551882,1.039244,-0.144897,-0.006080,0.008275,-163.331526,0.989394,2.628167,5.807576,0.177213
1690687611.722222,1689262593.414227,0.490570,1.076385,-0.145088,-0.005599,0.008672,-163.309749,0.989365,2.625273,5.806663,0.177334
1690687611.730430,1689262593.422551,0.521203,1.090041,-0.144730,-0.005877,0.008753,-163.350805,0.989415,2.622318,5.805872,0.177239
1690687611.749400,1689262593.439180,0.495894,1.109589,-0.145229,-0.005688,0.008951,-163.293210,0.989341,2.619320,5.804966,0.177290
1690687611.755164,1689262593.447440,0.519136,1.060679,-0.145435,-0.005829,0.008498,-163.269318,0.989314,2.616522,5.804208,0.177438
1690687611.763849,1689262593.456199,0.525430,1.083949,-0.144820,-0.005907,0.008695,-163.340435,0.989402,2.613468,5.803282,0.177517
1690687611.771920,1689262593.464399,0.506933,1.049297,-0.145330,-0.005708,0.008416,-163.281702,0.989331,2.610567,5.802431,0.177527
1690687611.779650,1689262593.472469,0.488547,1.085729,-0.145509,-0.005597,0.008753,-163.260895,0.989302,2.607456,5.801547,0.177511
1690687611.788738,1689262593.481070,0.477465,1.002019,-0.146111,-0.005400,0.008041,-163.191776,0.989221,2.604468,5.800624,0.177623
1690687611.805366,1689262593.497756,0.486290,1.031632,-0.145417,-0.005508,0.008289,-163.271970,0.989321,2.601381,5.799703,0.177737
1690687611.813414,1689262593.505766,0.511329,1.017708,-0.146293,-0.005714,0.008132,-163.170349,0.989191,2.598320,5.798813,0.177616
1690687611.822171,1689262593.514161,0.566729,1.056735,-0.145510,-0.006235,0.008403,-163.260196,0.989302,2.595270,5.797910,0.177647
1690687611.831472,1689262593.522464,0.591091,1.081992,-0.145707,-0.006479,0.008589,-163.236987,0.989269,2.592090,5.796947,0.177802
1690687611.846641,1689262593.539114,0.650091,1.132400,-0.145850,-0.007054,0.008948,-163.219497,0.989241,2.589048,5.796082,0.177617
1690687611.855465,1689262593.547504,0.626756,1.144362,-0.145993,-0.006869,0.009080,-163.203121,0.989220,2.586025,5.795148,0.177699
1690687611.863879,1689262593.555857,0.733081,1.099902,-0.145156,-0.007723,0.008567,-163.299275,0.989342,2.582955,5.794194,0.177682
1690687611.872422,1689262593.564518,0.722763,1.127814,-0.145253,-0.007670,0.008821,-163.287929,0.989326,2.579899,5.793243,0.177896
1690687611.880068,1689262593.572407,0.836848,1.122324,-0.145050,-0.008647,0.008630,-163.310203,0.989349,2.576920,5.792342,0.177824
1690687611.898173,1689262593.589401,0.760152,1.093390,-0.145357,-0.007950,0.008475,-163.275724,0.989311,2.573975,5.791449,0.177888
1690687611.906000,1689262593.597481,0.789285,1.081259,-0.145349,-0.008186,0.008334,-163.276414,0.989312,2.570917,5.790558,0.177971
1690687611.913571,1689262593.605852,0.700739,1.076892,-0.145493,-0.007418,0.008407,-163.260690,0.989296,2.568070,5.789749,0.177970
1690687611.922185,1689262593.614460,0.751633,1.068419,-0.144963,-0.007842,0.008274,-163.321609,0.989371,2.565025,5.788960,0.177958
1690687611.930365,1689262593.622672,0.651491,1.078721,-0.145425,-0.006994,0.008486,-163.269015,0.989308,2.562134,5.788126,0.178054
1690687611.938467,1689262593.630759,0.689068,1.117377,-0.144806,-0.007362,0.008777,-163.340051,0.989394,2.559143,5.787269,0.178128
1690687611.955401,1689262593.647735,0.682617,1.073599,-0.145245,-0.007255,0.008404,-163.289638,0.989334,2.556217,5.786362,0.178121
1690687611.963989,1689262593.656072,0.706450,1.089486,-0.144980,-0.007478,0.008513,-163.319966,0.989370,2.553226,5.785447,0.178051
1690687611.971949,1689262593.664236,0.710610,1.109792,-0.144763,-0.007538,0.008684,-163.344907,0.989400,2.550251,5.784534,0.177981
1690687611.979890,1689262593.672551,0.743477,1.062998,-0.144583,-0.007761,0.008240,-163.365737,0.989428,2.547244,5.783750,0.178023
1690687611.988420,1689262593.681080,0.756845,1.165432,-0.144396,-0.008004,0.009109,-163.386472,0.989446,2.544353,5.782928,0.178069
1690687612.004879,1689262593.697456,0.707813,1.165485,-0.144671,-0.007584,0.009169,-163.355183,0.989408,2.541438,5.782114,0.178188
1690687612.015059,1689262593.706074,0.805576,1.152019,-0.144528,-0.008409,0.008931,-163.370791,0.989425,2.538408,5.781185,0.178167
1690687612.022185,1689262593.714554,0.709529,1.156064,-0.144465,-0.007585,0.009087,-163.379047,0.989439,2.535503,5.780340,0.178217
1690687612.030225,1689262593.722513,0.766051,1.132896,-0.144920,-0.008047,0.008812,-163.325882,0.989371,2.532521,5.779525,0.178198
1690687612.047159,1689262593.739355,0.724955,1.101755,-0.144777,-0.007652,0.008597,-163.343177,0.989397,2.529634,5.778655,0.178194
1690687612.047774,1689262593.739437,0.699863,1.094381,-0.144832,-0.007426,0.008564,-163.337123,0.989391,2.526715,5.777703,0.178236
1690687612.063799,1689262593.756069,0.669006,1.095171,-0.144808,-0.007161,0.008610,-163.340179,0.989396,2.523781,5.776807,0.178381
1690687612.072131,1689262593.764414,0.669639,1.091203,-0.145266,-0.007165,0.008572,-163.287233,0.989330,2.520840,5.775951,0.178293
1690687612.080655,1689262593.772824,0.687355,1.107828,-0.144786,-0.007335,0.008697,-163.342533,0.989398,2.517810,5.775054,0.178331
1690687612.097198,1689262593.789429,0.698952,1.098239,-0.144962,-0.007425,0.008598,-163.322106,0.989372,2.514843,5.774167,0.178252
1690687612.097857,1689262593.789494,0.699147,1.091335,-0.144831,-0.007416,0.008539,-163.337333,0.989392,2.511931,5.773305,0.178297
1690687612.113951,1689262593.806072,0.690294,1.095075,-0.144406,-0.007341,0.008586,-163.386544,0.989454,2.509002,5.772446,0.178305
1690687612.122071,1689262593.814229,0.686769,1.065790,-0.144410,-0.007274,0.008337,-163.386386,0.989456,2.506109,5.771515,0.178340
1690687612.130434,1689262593.822484,0.674523,1.067079,-0.144613,-0.007171,0.008362,-163.362988,0.989427,2.503083,5.770561,0.178335
1690687612.138302,1689262593.830758,0.701413,1.049458,-0.145173,-0.007386,0.008172,-163.298010,0.989345,2.500113,5.769722,0.178298
1690687612.155316,1689262593.847500,0.717032,1.048263,-0.145194,-0.007519,0.008142,-163.295367,0.989341,2.497044,5.768911,0.178352
1690687612.164163,1689262593.856082,0.718508,1.079463,-0.145599,-0.007575,0.008406,-163.248242,0.989279,2.494079,5.768021,0.178430
1690687612.171834,1689262593.864408,0.705059,1.041576,-0.145487,-0.007410,0.008097,-163.261644,0.989299,2.491157,5.767093,0.178406
1690687612.180179,1689262593.872741,0.693239,1.053600,-0.145394,-0.007322,0.008216,-163.272445,0.989313,2.488167,5.766123,0.178552
1690687612.188020,1689262593.880780,0.723322,1.038140,-0.145835,-0.007566,0.008041,-163.221163,0.989247,2.485065,5.765198,0.178554
1690687612.205443,1689262593.897921,0.772836,0.969973,-0.145616,-0.007905,0.007392,-163.246576,0.989282,2.481958,5.764233,0.178527
1690687612.214167,1689262593.906079,0.775412,0.962801,-0.145207,-0.007915,0.007330,-163.293978,0.989343,2.478925,5.763283,0.178524
1690687612.221703,1689262593.914105,0.815220,0.984733,-0.145195,-0.008287,0.007469,-163.294772,0.989340,2.475948,5.762306,0.178519
1690687612.230392,1689262593.922526,0.756284,1.008083,-0.144939,-0.007805,0.007747,-163.324788,0.989379,2.472975,5.761433,0.178513
1690687612.247175,1689262593.939250,0.797268,1.063038,-0.144680,-0.008227,0.008172,-163.354031,0.989411,2.470039,5.760611,0.178612
1690687612.247725,1689262593.939299,0.746413,1.090627,-0.145239,-0.007827,0.008470,-163.289519,0.989329,2.467092,5.759810,0.178682
1690687612.263810,1689262593.956056,0.782226,1.067566,-0.145295,-0.008108,0.008225,-163.282864,0.989321,2.464054,5.759018,0.178585
1690687612.272320,1689262593.964403,0.776808,1.033823,-0.145195,-0.008017,0.007941,-163.294747,0.989339,2.461063,5.758105,0.178605
1690687612.280187,1689262593.972439,0.784863,1.018352,-0.145782,-0.008072,0.007793,-163.226834,0.989253,2.458138,5.757181,0.178671
1690687612.288875,1689262593.981088,0.771233,1.003064,-0.146245,-0.007938,0.007674,-163.173436,0.989187,2.455156,5.756311,0.178870
1690687612.305614,1689262593.997733,0.780641,0.994496,-0.146840,-0.008013,0.007583,-163.104513,0.989099,2.452163,5.755496,0.178823
1690687612.313282,1689262594.005772,0.828035,0.986963,-0.146963,-0.008413,0.007457,-163.089865,0.989078,2.449108,5.754543,0.178954
1690687612.322183,1689262594.014194,0.809850,1.025478,-0.146832,-0.008305,0.007813,-163.104918,0.989096,2.446174,5.753703,0.178801
1690687612.330536,1689262594.022846,0.843210,1.040879,-0.146626,-0.008611,0.007905,-163.128287,0.989123,2.443059,5.752781,0.178657
1690687612.338660,1689262594.030832,0.911648,1.097440,-0.145977,-0.009269,0.008312,-163.202197,0.989210,2.440043,5.751873,0.178676
1690687612.355345,1689262594.047522,0.948436,1.097408,-0.146425,-0.009590,0.008260,-163.149937,0.989141,2.437004,5.750908,0.178779
1690687612.364707,1689262594.056245,0.989601,1.098585,-0.145936,-0.009943,0.008223,-163.206090,0.989210,2.433956,5.750053,0.178806
1690687612.371643,1689262594.064363,0.995667,1.082123,-0.146311,-0.009977,0.008069,-163.162761,0.989155,2.430966,5.749214,0.178783
1690687612.380076,1689262594.072513,0.994474,1.113366,-0.146053,-0.010005,0.008343,-163.192342,0.989191,2.427979,5.748378,0.178782
1690687612.388400,1689262594.080852,0.975105,1.104910,-0.146000,-0.009826,0.008295,-163.198760,0.989201,2.425015,5.747411,0.178794
1690687612.405002,1689262594.097499,1.016916,1.120007,-0.145976,-0.010206,0.008372,-163.200973,0.989200,2.422015,5.746539,0.178889
1690687612.413541,1689262594.105840,0.974201,1.121272,-0.146783,-0.009846,0.008430,-163.107984,0.989084,2.419164,5.745787,0.178896
1690687612.422684,1689262594.114440,0.932256,1.110362,-0.146664,-0.009469,0.008391,-163.122289,0.989106,2.416219,5.744908,0.178922
1690687612.430049,1689262594.122454,0.934495,1.095791,-0.146479,-0.009468,0.008264,-163.143877,0.989134,2.413326,5.744018,0.178883
1690687612.438119,1689262594.130731,0.911301,1.096663,-0.146735,-0.009271,0.008298,-163.114383,0.989098,2.410439,5.743155,0.178781
