__time,/vrpn_client_node/turtlebot7/pose/header/stamp,/vrpn_client_node/turtlebot7/pose/pose/orientation/pitch_deg,/vrpn_client_node/turtlebot7/pose/pose/orientation/roll_deg,/vrpn_client_node/turtlebot7/pose/pose/orientation/w,/vrpn_client_node/turtlebot7/pose/pose/orientation/x,/vrpn_client_node/turtlebot7/pose/pose/orientation/y,/vrpn_client_node/turtlebot7/pose/pose/orientation/yaw_deg,/vrpn_client_node/turtlebot7/pose/pose/orientation/z,/vrpn_client_node/turtlebot7/pose/pose/position/x,/vrpn_client_node/turtlebot7/pose/pose/position/y,/vrpn_client_node/turtlebot7/pose/pose/position/z
1690687396.085169,1689261895.414412,2.239203,0.436334,-0.104595,0.019034,-0.005829,167.998493,-0.994316,3.466332,5.950235,0.180946
1690687396.085223,1689261895.430789,2.231818,0.444980,-0.104588,0.018962,-0.005897,167.999407,-0.994317,3.466339,5.950237,0.180943
1690687396.085427,1689261895.447530,2.237349,0.445006,-0.104566,0.019010,-0.005902,168.002013,-0.994319,3.466331,5.950249,0.180944
1690687396.099772,1689261895.464320,2.240680,0.445731,-0.104592,0.019039,-0.005912,167.998957,-0.994315,3.466335,5.950240,0.180937
1690687396.116672,1689261895.481246,2.237307,0.450580,-0.104640,0.019005,-0.005952,167.993589,-0.994311,3.466327,5.950245,0.180942
1690687396.124249,1689261895.489107,2.238480,0.446133,-0.104651,0.019019,-0.005914,167.992173,-0.994310,3.466337,5.950234,0.180941
1690687396.133362,1689261895.497814,2.233517,0.444323,-0.104641,0.018977,-0.005894,167.993336,-0.994312,3.466324,5.950218,0.180935
1690687396.141262,1689261895.505836,2.231192,0.453267,-0.104695,0.018949,-0.005970,167.987246,-0.994306,3.466329,5.950225,0.180930
1690687396.237439,1689261895.522837,2.224780,0.448613,-0.104651,0.018898,-0.005923,167.992190,-0.994312,3.466322,5.950230,0.180931
1690687396.238152,1689261895.530791,2.234876,0.442185,-0.104599,0.018991,-0.005876,167.998172,-0.994316,3.466329,5.950231,0.180947
1690687396.238240,1689261895.555858,2.233957,0.440821,-0.104657,0.018984,-0.005864,167.991389,-0.994310,3.466321,5.950242,0.180945
1690687396.238284,1689261895.564298,2.238051,0.456053,-0.104675,0.019006,-0.006000,167.989639,-0.994307,3.466345,5.950249,0.180936
1690687396.238338,1689261895.580850,2.234502,0.450711,-0.104618,0.018980,-0.005950,167.996051,-0.994314,3.466344,5.950247,0.180930
1690687396.238367,1689261895.589396,2.241010,0.451417,-0.104724,0.019035,-0.005964,167.983899,-0.994301,3.466332,5.950243,0.180932
1690687396.238411,1689261895.597761,2.245703,0.445738,-0.104682,0.019082,-0.005918,167.988688,-0.994305,3.466341,5.950238,0.180941
1690687396.249649,1689261895.614217,2.236461,0.455283,-0.104780,0.018992,-0.005994,167.977514,-0.994296,3.466327,5.950241,0.180938
1690687396.250369,1689261895.614285,2.241292,0.441851,-0.104667,0.019047,-0.005880,167.990285,-0.994308,3.466322,5.950215,0.180951
1690687396.266479,1689261895.630827,2.236848,0.443516,-0.104669,0.019007,-0.005890,167.990110,-0.994308,3.466332,5.950232,0.180939
1690687396.274748,1689261895.639200,2.238314,0.436794,-0.104599,0.019026,-0.005832,167.998008,-0.994315,3.466321,5.950231,0.180938
1690687396.283925,1689261895.647590,2.237083,0.447448,-0.104600,0.019006,-0.005923,167.998134,-0.994315,3.466335,5.950239,0.180943
1690687396.300141,1689261895.664404,2.235564,0.440875,-0.104623,0.018998,-0.005865,167.995302,-0.994313,3.466328,5.950232,0.180954
1690687396.300771,1689261895.664459,2.233532,0.445145,-0.104579,0.018977,-0.005900,168.000525,-0.994318,3.466326,5.950248,0.180939
1690687396.316524,1689261895.680903,2.237280,0.442690,-0.104623,0.019012,-0.005883,167.995313,-0.994313,3.466325,5.950247,0.180940
1690687396.325060,1689261895.689441,2.235139,0.440004,-0.104565,0.018996,-0.005856,168.001999,-0.994319,3.466327,5.950251,0.180941
1690687396.333569,1689261895.697933,2.235131,0.449288,-0.104727,0.018986,-0.005940,167.983443,-0.994302,3.466328,5.950254,0.180937
1690687396.341128,1689261895.705776,2.242780,0.438986,-0.104611,0.019063,-0.005855,167.996676,-0.994313,3.466331,5.950240,0.180951
1690687396.449266,1689261895.722499,2.238520,0.444072,-0.104639,0.019021,-0.005896,167.993583,-0.994311,3.466328,5.950242,0.180939
1690687396.450058,1689261895.730877,2.241573,0.445789,-0.104673,0.019046,-0.005914,167.989667,-0.994307,3.466335,5.950237,0.180939
1690687396.450133,1689261895.747544,2.239220,0.436550,-0.104654,0.019034,-0.005832,167.991667,-0.994309,3.466332,5.950231,0.180935
1690687396.450166,1689261895.756084,2.237139,0.443463,-0.104658,0.019010,-0.005890,167.991379,-0.994309,3.466337,5.950232,0.180926
1690687396.450194,1689261895.772576,2.232297,0.443191,-0.104608,0.018968,-0.005882,167.997091,-0.994315,3.466331,5.950223,0.180941
1690687396.450240,1689261895.781095,2.231974,0.449047,-0.104632,0.018960,-0.005933,167.994420,-0.994313,3.466341,5.950238,0.180934
1690687396.450275,1689261895.789422,2.232371,0.448984,-0.104611,0.018963,-0.005933,167.996905,-0.994315,3.466329,5.950243,0.180935
1690687396.450321,1689261895.797551,2.236654,0.448823,-0.104650,0.019000,-0.005936,167.992402,-0.994310,3.466345,5.950245,0.180931
1690687396.450355,1689261895.805791,2.233578,0.456499,-0.104696,0.018966,-0.006001,167.987222,-0.994305,3.466348,5.950259,0.180936
1690687396.458217,1689261895.822677,2.238203,0.443788,-0.104646,0.019019,-0.005894,167.992713,-0.994310,3.466341,5.950249,0.180930
1690687396.466405,1689261895.830884,2.240583,0.445478,-0.104627,0.019038,-0.005910,167.994955,-0.994312,3.466346,5.950244,0.180938
1690687396.474404,1689261895.839111,2.233479,0.444577,-0.104609,0.018977,-0.005895,167.996959,-0.994315,3.466341,5.950246,0.180934
1690687396.483117,1689261895.847525,2.244764,0.448744,-0.104662,0.019071,-0.005943,167.991012,-0.994307,3.466341,5.950232,0.180929
1690687396.491724,1689261895.856081,2.246598,0.448323,-0.104742,0.019087,-0.005942,167.981773,-0.994299,3.466340,5.950222,0.180928
1690687396.499684,1689261895.864109,2.242372,0.444903,-0.104730,0.019053,-0.005909,167.983088,-0.994301,3.466337,5.950215,0.180946
1690687396.516913,1689261895.881137,2.236946,0.444265,-0.104678,0.019007,-0.005897,167.989064,-0.994307,3.466342,5.950220,0.180932
1690687396.524810,1689261895.889196,2.237113,0.437583,-0.104537,0.019015,-0.005837,168.005209,-0.994322,3.466332,5.950231,0.180948
1690687396.532684,1689261895.897475,2.233147,0.437771,-0.104516,0.018981,-0.005834,168.007643,-0.994325,3.466325,5.950220,0.180939
1690687396.549832,1689261895.914269,2.233152,0.444132,-0.104568,0.018975,-0.005890,168.001736,-0.994319,3.466336,5.950243,0.180943
1690687396.550482,1689261895.914373,2.232956,0.450304,-0.104695,0.018967,-0.005946,167.987189,-0.994306,3.466336,5.950240,0.180943
1690687396.566353,1689261895.930833,2.236871,0.450356,-0.104671,0.019001,-0.005950,167.990014,-0.994308,3.466340,5.950243,0.180950
1690687396.574801,1689261895.939173,2.233450,0.452169,-0.104661,0.018970,-0.005962,167.991134,-0.994309,3.466346,5.950248,0.180933
1690687396.583070,1689261895.947523,2.230204,0.444536,-0.104579,0.018949,-0.005891,168.000501,-0.994319,3.466347,5.950242,0.180936
1690687396.591607,1689261895.955883,2.238860,0.444181,-0.104560,0.019024,-0.005896,168.002670,-0.994319,3.466333,5.950242,0.180934
1690687396.608202,1689261895.972774,2.241860,0.444575,-0.104682,0.019049,-0.005904,167.988605,-0.994306,3.466336,5.950236,0.180941
1690687396.616590,1689261895.981294,2.236275,0.453312,-0.104669,0.018993,-0.005975,167.990225,-0.994308,3.466334,5.950234,0.180940
1690687396.623984,1689261895.989116,2.242340,0.450874,-0.104704,0.019048,-0.005960,167.986181,-0.994303,3.466340,5.950222,0.180928
1690687396.632712,1689261895.997544,2.239490,0.451031,-0.104706,0.019023,-0.005959,167.985975,-0.994303,3.466331,5.950233,0.180935
1690687396.641782,1689261896.006111,2.238912,0.440041,-0.104597,0.019028,-0.005861,167.998288,-0.994315,3.466323,5.950226,0.180943
1690687396.657932,1689261896.022524,2.231897,0.440737,-0.104614,0.018967,-0.005861,167.996327,-0.994315,3.466322,5.950232,0.180933
1690687396.666219,1689261896.030877,2.235191,0.448339,-0.104635,0.018988,-0.005930,167.994136,-0.994312,3.466327,5.950231,0.180934
1690687396.674579,1689261896.039193,2.224239,0.442796,-0.104563,0.018899,-0.005871,168.002247,-0.994321,3.466333,5.950245,0.180944
1690687396.683085,1689261896.047526,2.232233,0.448634,-0.104621,0.018962,-0.005930,167.995727,-0.994314,3.466335,5.950244,0.180943
1690687396.691088,1689261896.055785,2.231718,0.457495,-0.104657,0.018950,-0.006007,167.991767,-0.994310,3.466346,5.950250,0.180941
1690687396.708383,1689261896.072752,2.231215,0.460727,-0.104742,0.018942,-0.006036,167.981940,-0.994301,3.466350,5.950247,0.180934
1690687396.716707,1689261896.080879,2.237233,0.448654,-0.104634,0.019006,-0.005935,167.994248,-0.994312,3.466343,5.950252,0.180949
1690687396.724900,1689261896.089436,2.233413,0.442873,-0.104610,0.018978,-0.005881,167.996901,-0.994315,3.466336,5.950239,0.180935
1690687396.732990,1689261896.097551,2.245710,0.445121,-0.104649,0.019082,-0.005912,167.992394,-0.994309,3.466326,5.950232,0.180940
1690687396.741471,1689261896.105894,2.241203,0.446652,-0.104679,0.019042,-0.005922,167.988955,-0.994306,3.466341,5.950236,0.180940
1690687396.758195,1689261896.122794,2.237468,0.449620,-0.104726,0.019006,-0.005945,167.983669,-0.994302,3.466344,5.950235,0.180947
1690687396.766256,1689261896.130862,2.234182,0.444041,-0.104612,0.018984,-0.005891,167.996621,-0.994314,3.466334,5.950223,0.180943
1690687396.774768,1689261896.139185,2.236069,0.451964,-0.104658,0.018992,-0.005963,167.991520,-0.994309,3.466335,5.950228,0.180926
1690687396.783376,1689261896.147735,2.229855,0.444772,-0.104597,0.018945,-0.005894,167.998345,-0.994317,3.466337,5.950234,0.180943
1690687396.799908,1689261896.164263,2.234874,0.453759,-0.104638,0.018981,-0.005977,167.993859,-0.994311,3.466344,5.950242,0.180932
1690687396.800562,1689261896.164319,2.231491,0.446411,-0.104583,0.018958,-0.005909,168.000089,-0.994318,3.466342,5.950241,0.180941
1690687396.816078,1689261896.180810,2.233377,0.438932,-0.104579,0.018981,-0.005846,168.000355,-0.994318,3.466338,5.950243,0.180939
1690687396.825194,1689261896.189425,2.236968,0.448875,-0.104654,0.019003,-0.005937,167.991891,-0.994309,3.466350,5.950258,0.180930
1690687396.832732,1689261896.197554,2.234536,0.444967,-0.104565,0.018986,-0.005899,168.002072,-0.994319,3.466339,5.950257,0.180939
1690687396.841324,1689261896.206125,2.232843,0.447052,-0.104594,0.018969,-0.005916,167.998753,-0.994316,3.466335,5.950249,0.180941
1690687396.858693,1689261896.222682,2.238300,0.450495,-0.104706,0.019013,-0.005953,167.985996,-0.994304,3.466332,5.950243,0.180946
1690687396.866397,1689261896.230880,2.241151,0.446704,-0.104658,0.019041,-0.005922,167.991416,-0.994308,3.466333,5.950238,0.180942
1690687396.874865,1689261896.239107,2.233910,0.435001,-0.104582,0.018990,-0.005812,167.999921,-0.994318,3.466324,5.950235,0.180939
1690687396.883039,1689261896.247768,2.237692,0.446762,-0.104667,0.019011,-0.005919,167.990318,-0.994308,3.466323,5.950233,0.180930
1690687396.892097,1689261896.256383,2.233515,0.443802,-0.104600,0.018978,-0.005889,167.998001,-0.994316,3.466335,5.950234,0.180946
1690687396.908208,1689261896.272610,2.235176,0.449944,-0.104668,0.018987,-0.005945,167.990325,-0.994308,3.466338,5.950238,0.180929
1690687396.916581,1689261896.281095,2.228537,0.445566,-0.104681,0.018933,-0.005901,167.988739,-0.994308,3.466336,5.950246,0.180940
1690687396.924784,1689261896.289415,2.234222,0.447783,-0.104698,0.018980,-0.005926,167.986814,-0.994305,3.466346,5.950246,0.180936
1690687396.933777,1689261896.297547,2.229998,0.449683,-0.104617,0.018942,-0.005937,167.996225,-0.994315,3.466334,5.950253,0.180949
1690687396.940989,1689261896.305790,2.231598,0.446835,-0.104677,0.018958,-0.005915,167.989221,-0.994308,3.466340,5.950242,0.180948
1690687397.056667,1689261896.322637,2.230903,0.450463,-0.104650,0.018949,-0.005945,167.992394,-0.994311,3.466337,5.950246,0.180944
1690687397.058374,1689261896.339134,2.239588,0.449939,-0.104651,0.019025,-0.005948,167.992314,-0.994309,3.466331,5.950232,0.180948
1690687397.058430,1689261896.347537,2.240367,0.450729,-0.104747,0.019030,-0.005958,167.981259,-0.994299,3.466335,5.950233,0.180947
1690687397.058459,1689261896.355900,2.241920,0.438512,-0.104651,0.019056,-0.005851,167.992011,-0.994309,3.466334,5.950222,0.180950
1690687397.058492,1689261896.364350,2.232104,0.448484,-0.104728,0.018961,-0.005930,167.983396,-0.994302,3.466340,5.950222,0.180930
1690687397.058542,1689261896.381089,2.237228,0.436731,-0.104615,0.019017,-0.005831,167.996196,-0.994314,3.466325,5.950222,0.180950
1690687397.058619,1689261896.397557,2.232384,0.451279,-0.104654,0.018961,-0.005953,167.991980,-0.994310,3.466345,5.950238,0.180935
1690687397.058669,1689261896.406091,2.230698,0.448834,-0.104585,0.018949,-0.005929,167.999822,-0.994318,3.466337,5.950245,0.180934
1690687397.059255,1689261896.423027,2.231893,0.444663,-0.104623,0.018963,-0.005895,167.995444,-0.994314,3.466331,5.950244,0.180929
1690687397.066358,1689261896.430832,2.227635,0.455948,-0.104689,0.018915,-0.005990,167.987952,-0.994307,3.466347,5.950251,0.180923
1690687397.074575,1689261896.439170,2.235016,0.452257,-0.104616,0.018983,-0.005964,167.996340,-0.994314,3.466346,5.950251,0.180930
1690687397.082994,1689261896.447524,2.235309,0.440159,-0.104577,0.018997,-0.005858,168.000662,-0.994318,3.466321,5.950253,0.180930
1690687397.091161,1689261896.455833,2.240590,0.452730,-0.104672,0.019031,-0.005974,167.989862,-0.994307,3.466341,5.950241,0.180934
1690687397.108266,1689261896.472833,2.242276,0.449251,-0.104693,0.019049,-0.005946,167.987392,-0.994304,3.466328,5.950243,0.180955
1690687397.117824,1689261896.481102,2.242227,0.445626,-0.104618,0.019052,-0.005913,167.996018,-0.994312,3.466331,5.950237,0.180936
1690687397.124378,1689261896.489122,2.234976,0.451500,-0.104737,0.018983,-0.005959,167.982422,-0.994301,3.466329,5.950226,0.180937
1690687397.133412,1689261896.497738,2.235042,0.451121,-0.104791,0.018984,-0.005957,167.976103,-0.994295,3.466330,5.950213,0.180931
1690687397.141348,1689261896.505864,2.229497,0.442462,-0.104654,0.018944,-0.005874,167.991774,-0.994311,3.466322,5.950229,0.180951
1690687397.149919,1689261896.514525,2.234648,0.447115,-0.104689,0.018984,-0.005920,167.987826,-0.994306,3.466333,5.950230,0.180935
1690687397.166647,1689261896.531058,2.229332,0.438935,-0.104548,0.018947,-0.005841,168.003941,-0.994322,3.466335,5.950241,0.180950
1690687397.175282,1689261896.539787,2.238637,0.455227,-0.104640,0.019012,-0.005993,167.993653,-0.994310,3.466338,5.950242,0.180936
1690687397.183049,1689261896.547513,2.232322,0.447423,-0.104641,0.018964,-0.005920,167.993410,-0.994312,3.466334,5.950237,0.180930
1690687397.191522,1689261896.555920,2.230568,0.445550,-0.104578,0.018951,-0.005901,168.000559,-0.994319,3.466337,5.950254,0.180936
1690687397.208374,1689261896.572759,2.239025,0.451389,-0.104661,0.019019,-0.005960,167.991198,-0.994308,3.466332,5.950242,0.180929
1690687397.215824,1689261896.580821,2.234166,0.442554,-0.104649,0.018985,-0.005879,167.992403,-0.994311,3.466324,5.950242,0.180930
1690687397.224440,1689261896.589205,2.238823,0.449404,-0.104556,0.019019,-0.005941,168.003228,-0.994319,3.466344,5.950234,0.180935
1690687397.289130,1689261896.597754,2.241618,0.434670,-0.104582,0.019057,-0.005816,167.999992,-0.994317,3.466317,5.950226,0.180935
1690687397.308749,1689261896.622550,2.237914,0.444723,-0.104622,0.019015,-0.005901,167.995548,-0.994313,3.466320,5.950220,0.180941
1690687397.308842,1689261896.639423,2.238805,0.441735,-0.104571,0.019026,-0.005875,168.001368,-0.994318,3.466328,5.950230,0.180942
1690687397.308924,1689261896.647460,2.228991,0.449973,-0.104614,0.018933,-0.005938,167.996570,-0.994315,3.466338,5.950235,0.180949
1690687397.309766,1689261896.656174,2.236376,0.446615,-0.104615,0.019000,-0.005916,167.996312,-0.994314,3.466324,5.950233,0.180936
1690687397.309805,1689261896.672640,2.237400,0.452235,-0.104659,0.019004,-0.005966,167.991347,-0.994309,3.466332,5.950247,0.180941
1690687397.316636,1689261896.680949,2.234920,0.445265,-0.104618,0.018989,-0.005903,167.995932,-0.994314,3.466333,5.950243,0.180942
1690687397.325181,1689261896.689420,2.237746,0.455891,-0.104643,0.019004,-0.005998,167.993365,-0.994310,3.466335,5.950242,0.180939
1690687397.333775,1689261896.697864,2.236857,0.443432,-0.104627,0.019007,-0.005889,167.994938,-0.994312,3.466345,5.950250,0.180945
1690687397.341341,1689261896.705794,2.238239,0.438286,-0.104610,0.019024,-0.005845,167.996769,-0.994314,3.466331,5.950243,0.180943
1690687397.358423,1689261896.722630,2.241367,0.450497,-0.104711,0.019039,-0.005956,167.985335,-0.994303,3.466333,5.950233,0.180935
1690687397.366841,1689261896.731111,2.235467,0.439757,-0.104685,0.018998,-0.005857,167.988185,-0.994307,3.466318,5.950222,0.180955
1690687397.374503,1689261896.739140,2.236077,0.445008,-0.104668,0.018999,-0.005903,167.990231,-0.994308,3.466329,5.950219,0.180936
1690687397.383454,1689261896.747799,2.237367,0.438666,-0.104638,0.019016,-0.005848,167.993513,-0.994311,3.466325,5.950221,0.180935
1690687397.399745,1689261896.764277,2.234858,0.446355,-0.104585,0.018988,-0.005912,167.999776,-0.994317,3.466335,5.950231,0.180937
1690687397.416584,1689261896.781089,2.234426,0.444286,-0.104607,0.018986,-0.005894,167.997242,-0.994315,3.466331,5.950236,0.180945
1690687397.424749,1689261896.789430,2.232889,0.449716,-0.104636,0.018967,-0.005940,167.993944,-0.994312,3.466335,5.950242,0.180928
1690687397.432663,1689261896.797496,2.232688,0.444920,-0.104645,0.018970,-0.005898,167.992853,-0.994311,3.466326,5.950235,0.180936
1690687397.441669,1689261896.805848,2.234306,0.447822,-0.104624,0.018981,-0.005925,167.995391,-0.994313,3.466325,5.950243,0.180937
1690687397.458135,1689261896.822647,2.243875,0.441019,-0.104542,0.019071,-0.005873,168.004733,-0.994320,3.466332,5.950236,0.180934
1690687397.466680,1689261896.831089,2.242534,0.440251,-0.104605,0.019060,-0.005866,167.997411,-0.994314,3.466321,5.950231,0.180934
1690687397.475106,1689261896.839531,2.237864,0.455336,-0.104681,0.019005,-0.005994,167.988910,-0.994306,3.466333,5.950237,0.180944
1690687397.483296,1689261896.847754,2.237498,0.443778,-0.104553,0.019013,-0.005891,168.003414,-0.994320,3.466331,5.950229,0.180938
1690687397.491616,1689261896.856109,2.241083,0.449477,-0.104672,0.019038,-0.005946,167.989887,-0.994307,3.466336,5.950220,0.180921
1690687397.508331,1689261896.872750,2.234865,0.443823,-0.104754,0.018989,-0.005893,167.980318,-0.994299,3.466328,5.950217,0.180926
1690687397.516843,1689261896.881126,2.237979,0.443577,-0.104692,0.019016,-0.005892,167.987380,-0.994305,3.466324,5.950216,0.180929
1690687397.524776,1689261896.889197,2.237069,0.445296,-0.104658,0.019007,-0.005906,167.991342,-0.994309,3.466323,5.950223,0.180933
1690687397.533364,1689261896.897656,2.233592,0.436093,-0.104609,0.018986,-0.005822,167.996894,-0.994315,3.466327,5.950224,0.180943
1690687397.541887,1689261896.906104,2.236299,0.444004,-0.104519,0.019003,-0.005891,168.007421,-0.994324,3.466343,5.950240,0.180935
1690687397.558364,1689261896.923048,2.228864,0.446171,-0.104651,0.018935,-0.005906,167.992235,-0.994311,3.466339,5.950233,0.180942
1690687397.566794,1689261896.931219,2.232602,0.453381,-0.104641,0.018961,-0.005972,167.993517,-0.994311,3.466328,5.950254,0.180947
1690687397.574871,1689261896.939399,2.240626,0.448198,-0.104674,0.019035,-0.005935,167.989645,-0.994307,3.466339,5.950236,0.180938
1690687397.583036,1689261896.947556,2.239147,0.449560,-0.104697,0.019021,-0.005945,167.986923,-0.994304,3.466327,5.950243,0.180934
1690687397.590859,1689261896.955804,2.244609,0.450716,-0.104711,0.019067,-0.005961,167.985362,-0.994302,3.466337,5.950244,0.180942
1690687397.599574,1689261896.964216,2.239725,0.450400,-0.104771,0.019025,-0.005955,167.978469,-0.994297,3.466328,5.950225,0.180936
1690687397.616343,1689261896.981058,2.241534,0.448119,-0.104647,0.019043,-0.005934,167.992753,-0.994309,3.466343,5.950224,0.180929
1690687397.624522,1689261896.989236,2.236055,0.442764,-0.104666,0.019001,-0.005883,167.990420,-0.994309,3.466331,5.950220,0.180926
1690687397.632961,1689261896.997753,2.237831,0.440580,-0.104632,0.019018,-0.005865,167.994246,-0.994312,3.466328,5.950232,0.180941
1690687397.649680,1689261897.014386,2.235087,0.448726,-0.104775,0.018986,-0.005936,167.977976,-0.994297,3.466338,5.950224,0.180936
1690687397.667816,1689261897.031109,2.238288,0.454981,-0.104700,0.019009,-0.005992,167.986683,-0.994304,3.466344,5.950235,0.180938
1690687397.675324,1689261897.039774,2.235856,0.447870,-0.104628,0.018995,-0.005926,167.994929,-0.994312,3.466335,5.950244,0.180941
1690687397.682699,1689261897.047421,2.237941,0.450487,-0.104687,0.019010,-0.005952,167.988163,-0.994306,3.466337,5.950233,0.180926
1690687397.691232,1689261897.055961,2.234633,0.449218,-0.104683,0.018982,-0.005938,167.988524,-0.994307,3.466326,5.950246,0.180922
1690687397.699634,1689261897.064222,2.234104,0.455934,-0.104710,0.018971,-0.005996,167.985636,-0.994304,3.466328,5.950248,0.180923
1690687397.716998,1689261897.080913,2.239460,0.446788,-0.104686,0.019026,-0.005921,167.988175,-0.994306,3.466338,5.950237,0.180919
1690687397.725022,1689261897.089438,2.242310,0.451462,-0.104695,0.019047,-0.005965,167.987245,-0.994304,3.466328,5.950231,0.180936
1690687397.733290,1689261897.097550,2.245828,0.447004,-0.104719,0.019081,-0.005930,167.984446,-0.994301,3.466324,5.950217,0.180932
1690687397.741692,1689261897.106172,2.244914,0.447024,-0.104692,0.019074,-0.005929,167.987539,-0.994304,3.466333,5.950231,0.180933
1690687397.758090,1689261897.122541,2.244895,0.440193,-0.104700,0.019080,-0.005869,167.986442,-0.994304,3.466313,5.950218,0.180924
1690687397.766897,1689261897.131223,2.241194,0.445884,-0.104687,0.019042,-0.005915,167.988033,-0.994305,3.466332,5.950223,0.180941
1690687397.775215,1689261897.139197,2.230370,0.443130,-0.104650,0.018951,-0.005881,167.992267,-0.994311,3.466319,5.950219,0.180934
1690687397.782701,1689261897.147438,2.231057,0.452121,-0.104586,0.018949,-0.005958,167.999848,-0.994318,3.466333,5.950237,0.180939
1690687397.800008,1689261897.164577,2.232838,0.441459,-0.104499,0.018975,-0.005866,168.009573,-0.994327,3.466334,5.950245,0.180940
1690687397.816002,1689261897.180915,2.234061,0.443330,-0.104655,0.018983,-0.005886,167.991718,-0.994310,3.466320,5.950247,0.180940
1690687397.824491,1689261897.189424,2.237333,0.448727,-0.104675,0.019006,-0.005936,167.989468,-0.994307,3.466333,5.950243,0.180948
1690687397.832906,1689261897.197561,2.238752,0.444221,-0.104599,0.019023,-0.005897,167.998214,-0.994315,3.466321,5.950238,0.180928
1690687397.840556,1689261897.205729,2.241369,0.449357,-0.104637,0.019041,-0.005945,167.993863,-0.994310,3.466326,5.950225,0.180922
1690687397.858329,1689261897.222678,2.244083,0.442681,-0.104642,0.019071,-0.005889,167.993181,-0.994310,3.466319,5.950219,0.180930
1690687397.866495,1689261897.231116,2.238739,0.444951,-0.104643,0.019022,-0.005904,167.993110,-0.994310,3.466327,5.950218,0.180935
1690687397.874283,1689261897.239139,2.241631,0.448976,-0.104658,0.019043,-0.005942,167.991504,-0.994308,3.466319,5.950209,0.180938
1690687397.883262,1689261897.247767,2.236828,0.439291,-0.104674,0.019011,-0.005854,167.989375,-0.994308,3.466317,5.950205,0.180924
1690687397.891625,1689261897.256107,2.233212,0.442474,-0.104675,0.018976,-0.005878,167.989344,-0.994308,3.466316,5.950212,0.180924
1690687397.908270,1689261897.272756,2.232115,0.449076,-0.104633,0.018961,-0.005934,167.994357,-0.994312,3.466339,5.950212,0.180935
1690687397.916516,1689261897.281108,2.234932,0.443944,-0.104636,0.018990,-0.005892,167.993870,-0.994312,3.466323,5.950232,0.180942
1690687397.924895,1689261897.289436,2.227939,0.449911,-0.104589,0.018924,-0.005936,167.999361,-0.994318,3.466327,5.950239,0.180938
1690687397.933487,1689261897.297604,2.231534,0.451861,-0.104624,0.018953,-0.005957,167.995421,-0.994313,3.466332,5.950234,0.180940
1690687397.941201,1689261897.305811,2.234602,0.442850,-0.104583,0.018989,-0.005881,167.999975,-0.994317,3.466331,5.950235,0.180937
1690687397.958440,1689261897.322687,2.237188,0.441078,-0.104628,0.019012,-0.005869,167.994739,-0.994312,3.466329,5.950228,0.180941
1690687397.967054,1689261897.331188,2.238848,0.449972,-0.104585,0.019019,-0.005947,167.999926,-0.994316,3.466345,5.950234,0.180935
1690687397.976257,1689261897.339534,2.238008,0.448654,-0.104638,0.019012,-0.005935,167.993785,-0.994311,3.466322,5.950233,0.180946
1690687397.983389,1689261897.347917,2.244408,0.443708,-0.104689,0.019072,-0.005899,167.987766,-0.994305,3.466331,5.950229,0.180928
1690687397.991617,1689261897.356160,2.237237,0.445594,-0.104606,0.019009,-0.005908,167.997423,-0.994315,3.466337,5.950217,0.180935
1690687398.008230,1689261897.372761,2.240806,0.443597,-0.104753,0.019041,-0.005896,167.980418,-0.994299,3.466325,5.950210,0.180934
1690687398.016257,1689261897.381240,2.231410,0.446368,-0.104687,0.018957,-0.005910,167.988070,-0.994307,3.466340,5.950218,0.180921
1690687398.025208,1689261897.389230,2.232583,0.448295,-0.104682,0.018965,-0.005928,167.988609,-0.994307,3.466331,5.950222,0.180946
1690687398.032542,1689261897.397480,2.233323,0.444767,-0.104642,0.018975,-0.005898,167.993154,-0.994311,3.466327,5.950227,0.180950
1690687398.041392,1689261897.406108,2.240173,0.450810,-0.104657,0.019029,-0.005956,167.991582,-0.994308,3.466328,5.950230,0.180924
1690687398.058265,1689261897.422990,2.231530,0.445159,-0.104564,0.018960,-0.005898,168.002192,-0.994320,3.466335,5.950249,0.180934
1690687398.066337,1689261897.430764,2.239522,0.444326,-0.104602,0.019030,-0.005899,167.997786,-0.994315,3.466333,5.950242,0.180937
1690687398.074987,1689261897.439425,2.235709,0.446287,-0.104668,0.018994,-0.005913,167.990245,-0.994308,3.466341,5.950238,0.180936
1690687398.082877,1689261897.447603,2.237210,0.448368,-0.104641,0.019006,-0.005932,167.993432,-0.994311,3.466330,5.950241,0.180936
1690687398.091624,1689261897.456223,2.239984,0.443242,-0.104606,0.019035,-0.005890,167.997316,-0.994314,3.466317,5.950223,0.180929
1690687398.100180,1689261897.464756,2.240719,0.437699,-0.104627,0.019046,-0.005843,167.994824,-0.994312,3.466334,5.950234,0.180938
1690687398.116454,1689261897.481097,2.243249,0.443753,-0.104602,0.019063,-0.005897,167.997868,-0.994314,3.466332,5.950216,0.180933
1690687398.124425,1689261897.489264,2.239605,0.439887,-0.104625,0.019034,-0.005861,167.995077,-0.994312,3.466325,5.950222,0.180933
1690687398.142814,1689261897.497583,2.237699,0.451355,-0.104646,0.019007,-0.005959,167.992894,-0.994310,3.466334,5.950218,0.180925
1690687398.149707,1689261897.514275,2.233522,0.435843,-0.104650,0.018985,-0.005820,167.992156,-0.994311,3.466311,5.950225,0.180939
1690687398.149830,1689261897.514333,2.233622,0.447911,-0.104588,0.018975,-0.005924,167.999471,-0.994317,3.466339,5.950227,0.180941
1690687398.166926,1689261897.531508,2.233664,0.443515,-0.104615,0.018980,-0.005886,167.996321,-0.994314,3.466331,5.950236,0.180929
1690687398.174923,1689261897.539536,2.232017,0.437860,-0.104582,0.018971,-0.005835,167.999952,-0.994318,3.466325,5.950235,0.180943
1690687398.183381,1689261897.547460,2.235101,0.456193,-0.104684,0.018980,-0.005999,167.988532,-0.994306,3.466339,5.950246,0.180929
1690687398.191163,1689261897.555923,2.238061,0.445357,-0.104664,0.019016,-0.005907,167.990692,-0.994308,3.466321,5.950242,0.180936
1690687398.208560,1689261897.572943,2.240229,0.438385,-0.104528,0.019042,-0.005846,168.006186,-0.994322,3.466326,5.950237,0.180940
1690687398.216411,1689261897.581272,2.240595,0.444474,-0.104671,0.019039,-0.005902,167.989832,-0.994307,3.466322,5.950231,0.180930
1690687398.224639,1689261897.589415,2.243460,0.443245,-0.104670,0.019064,-0.005894,167.989924,-0.994307,3.466330,5.950223,0.180942
1690687398.233034,1689261897.597849,2.237667,0.439734,-0.104635,0.019018,-0.005858,167.993932,-0.994312,3.466319,5.950229,0.180947
1690687398.241440,1689261897.606121,2.243320,0.448799,-0.104711,0.019058,-0.005943,167.985330,-0.994302,3.466329,5.950220,0.180939
1690687398.257853,1689261897.622818,2.247034,0.437979,-0.104557,0.019101,-0.005849,168.002938,-0.994318,3.466329,5.950221,0.180938
1690687398.266096,1689261897.630914,2.230589,0.444140,-0.104597,0.018952,-0.005889,167.998416,-0.994317,3.466330,5.950222,0.180928
1690687398.274657,1689261897.639224,2.231748,0.454442,-0.104673,0.018953,-0.005981,167.989770,-0.994308,3.466338,5.950238,0.180946
1690687398.283381,1689261897.647953,2.230986,0.438987,-0.104594,0.018961,-0.005844,167.998661,-0.994317,3.466330,5.950224,0.180941
1690687398.291456,1689261897.656095,2.243146,0.438998,-0.104419,0.019067,-0.005852,168.018785,-0.994333,3.466337,5.950237,0.180935
1690687398.300282,1689261897.664882,2.231745,0.451068,-0.104683,0.018956,-0.005952,167.988575,-0.994307,3.466343,5.950224,0.180932
1690687398.316280,1689261897.680833,2.233444,0.440829,-0.104544,0.018981,-0.005862,168.004390,-0.994322,3.466328,5.950232,0.180939
1690687398.324798,1689261897.689384,2.246337,0.446784,-0.104606,0.019087,-0.005926,167.997414,-0.994313,3.466331,5.950239,0.180945
1690687398.333284,1689261897.697858,2.239985,0.441846,-0.104632,0.019036,-0.005878,167.994258,-0.994311,3.466321,5.950239,0.180949
1690687398.340816,1689261897.705803,2.238410,0.439981,-0.104641,0.019024,-0.005861,167.993203,-0.994311,3.466322,5.950222,0.180931
1690687398.349812,1689261897.714397,2.246262,0.441597,-0.104620,0.019091,-0.005881,167.995733,-0.994312,3.466326,5.950221,0.180943
1690687398.366411,1689261897.730884,2.238905,0.439535,-0.104606,0.019029,-0.005857,167.997229,-0.994314,3.466330,5.950219,0.180939
1690687398.374339,1689261897.739140,2.243563,0.436070,-0.104552,0.019073,-0.005830,168.003377,-0.994319,3.466341,5.950213,0.180942
1690687398.382761,1689261897.747518,2.233663,0.447346,-0.104766,0.018975,-0.005923,167.978973,-0.994298,3.466343,5.950226,0.180929
1690687398.399531,1689261897.764204,2.237705,0.446858,-0.104691,0.019011,-0.005921,167.987625,-0.994306,3.466340,5.950223,0.180942
1690687398.400186,1689261897.764254,2.228484,0.444721,-0.104604,0.018934,-0.005892,167.997630,-0.994316,3.466345,5.950236,0.180938
1690687398.416505,1689261897.781088,2.232000,0.450407,-0.104597,0.018959,-0.005944,167.998521,-0.994316,3.466340,5.950229,0.180932
1690687398.425036,1689261897.789434,2.235601,0.445146,-0.104583,0.018995,-0.005902,168.000048,-0.994317,3.466338,5.950236,0.180926
1690687398.432507,1689261897.797495,2.234561,0.443057,-0.104569,0.018988,-0.005882,168.001578,-0.994319,3.466330,5.950249,0.180943
1690687398.440629,1689261897.805786,2.238939,0.442908,-0.104581,0.019026,-0.005885,168.000236,-0.994317,3.466333,5.950246,0.180946
1690687398.449546,1689261897.814234,2.238225,0.444423,-0.104608,0.019018,-0.005898,167.997148,-0.994314,3.466330,5.950242,0.180942
1690687398.465864,1689261897.830839,2.243905,0.440708,-0.104606,0.019071,-0.005871,167.997263,-0.994314,3.466338,5.950227,0.180941
1690687398.474534,1689261897.839170,2.242622,0.438140,-0.104619,0.019062,-0.005848,167.995711,-0.994312,3.466329,5.950227,0.180943
1690687398.483069,1689261897.847541,2.244825,0.448712,-0.104602,0.019072,-0.005941,167.997930,-0.994314,3.466332,5.950220,0.180934
1690687398.499490,1689261897.864279,2.243274,0.440380,-0.104656,0.019066,-0.005869,167.991526,-0.994308,3.466310,5.950215,0.180947
1690687398.516473,1689261897.881111,2.242995,0.438638,-0.104662,0.019065,-0.005854,167.990814,-0.994308,3.466337,5.950222,0.180932
1690687398.524672,1689261897.889229,2.236188,0.441169,-0.104630,0.019004,-0.005869,167.994546,-0.994312,3.466328,5.950223,0.180943
1690687398.532851,1689261897.897444,2.236849,0.441687,-0.104572,0.019009,-0.005873,168.001228,-0.994318,3.466340,5.950239,0.180949
1690687398.549821,1689261897.914272,2.234435,0.439053,-0.104554,0.018991,-0.005847,168.003241,-0.994321,3.466335,5.950235,0.180946
1690687398.557696,1689261897.922544,2.236491,0.437737,-0.104537,0.019010,-0.005837,168.005225,-0.994322,3.466338,5.950252,0.180938
1690687398.565994,1689261897.930824,2.239631,0.440113,-0.104626,0.019034,-0.005863,167.994947,-0.994312,3.466327,5.950240,0.180935
1690687398.574815,1689261897.939428,2.242661,0.445852,-0.104599,0.019056,-0.005915,167.998236,-0.994314,3.466331,5.950246,0.180940
1690687398.583148,1689261897.947846,2.244274,0.442756,-0.104626,0.019072,-0.005890,167.995049,-0.994311,3.466335,5.950236,0.180947
1690687398.592269,1689261897.956101,2.241020,0.447770,-0.104663,0.019039,-0.005931,167.990912,-0.994308,3.466336,5.950229,0.180938
1690687398.608361,1689261897.972778,2.242186,0.447240,-0.104670,0.019050,-0.005928,167.990008,-0.994307,3.466333,5.950238,0.180938
1690687398.616627,1689261897.981262,2.241314,0.442590,-0.104631,0.019047,-0.005886,167.994441,-0.994311,3.466333,5.950233,0.180929
1690687398.624708,1689261897.989590,2.242527,0.449617,-0.104647,0.019051,-0.005948,167.992736,-0.994309,3.466333,5.950213,0.180931
1690687398.632530,1689261897.997560,2.235457,0.445186,-0.104631,0.018993,-0.005903,167.994429,-0.994312,3.466333,5.950222,0.180945
1690687398.641211,1689261898.005891,2.237941,0.447354,-0.104599,0.019013,-0.005923,167.998173,-0.994315,3.466329,5.950235,0.180936
1690687398.657460,1689261898.022474,2.230080,0.438345,-0.104546,0.018954,-0.005837,168.004102,-0.994322,3.466343,5.950232,0.180934
1690687398.665950,1689261898.031132,2.230305,0.449386,-0.104593,0.018945,-0.005934,167.998922,-0.994317,3.466341,5.950252,0.180929
1690687398.674860,1689261898.039435,2.228906,0.444478,-0.104560,0.018938,-0.005889,168.002653,-0.994321,3.466341,5.950241,0.180945
1690687398.682786,1689261898.047472,2.234078,0.442126,-0.104589,0.018985,-0.005874,167.999221,-0.994317,3.466339,5.950248,0.180935
1690687398.691669,1689261898.056106,2.234375,0.449224,-0.104631,0.018980,-0.005937,167.994517,-0.994312,3.466344,5.950250,0.180921
1690687398.708261,1689261898.072778,2.237543,0.446991,-0.104603,0.019010,-0.005920,167.997705,-0.994315,3.466330,5.950245,0.180929
1690687398.716722,1689261898.081115,2.236287,0.449321,-0.104699,0.018997,-0.005941,167.986763,-0.994305,3.466329,5.950239,0.180945
1690687398.724664,1689261898.089363,2.239277,0.443606,-0.104681,0.019028,-0.005894,167.988757,-0.994306,3.466325,5.950235,0.180941
1690687398.733278,1689261898.097827,2.242425,0.444986,-0.104718,0.019054,-0.005909,167.984419,-0.994302,3.466328,5.950224,0.180941
1690687398.741771,1689261898.105973,2.236005,0.432568,-0.104607,0.019010,-0.005793,167.997028,-0.994315,3.466336,5.950234,0.180932
1690687398.757901,1689261898.122679,2.234023,0.445646,-0.104689,0.018980,-0.005907,167.987766,-0.994306,3.466337,5.950239,0.180935
1690687398.766323,1689261898.131144,2.237771,0.445254,-0.104720,0.019013,-0.005907,167.984290,-0.994303,3.466337,5.950231,0.180931
1690687398.774351,1689261898.139214,2.230766,0.444833,-0.104600,0.018953,-0.005895,167.998034,-0.994316,3.466336,5.950238,0.180925
1690687398.782488,1689261898.147472,2.234661,0.438986,-0.104531,0.018993,-0.005846,168.005877,-0.994323,3.466339,5.950258,0.180933
1690687398.799492,1689261898.164170,2.229936,0.440883,-0.104514,0.018950,-0.005858,168.007908,-0.994326,3.466328,5.950246,0.180934
1690687398.807800,1689261898.172482,2.233910,0.449512,-0.104617,0.018976,-0.005939,167.996178,-0.994314,3.466341,5.950257,0.180926
1690687398.816168,1689261898.180893,2.231122,0.449408,-0.104655,0.018952,-0.005936,167.991825,-0.994310,3.466333,5.950254,0.180930
1690687398.824390,1689261898.189380,2.234496,0.440705,-0.104596,0.018989,-0.005862,167.998382,-0.994316,3.466328,5.950253,0.180925
1690687398.833008,1689261898.197767,2.241629,0.444792,-0.104647,0.019047,-0.005905,167.992651,-0.994309,3.466329,5.950249,0.180931
1690687398.841464,1689261898.205943,2.244020,0.444279,-0.104708,0.019068,-0.005904,167.985612,-0.994303,3.466334,5.950244,0.180930
1690687398.859142,1689261898.222635,2.243594,0.442180,-0.104583,0.019067,-0.005883,167.999950,-0.994316,3.466322,5.950241,0.180921
1690687398.866052,1689261898.230899,2.234795,0.443842,-0.104684,0.018989,-0.005892,167.988396,-0.994307,3.466329,5.950225,0.180931
1690687398.874191,1689261898.239141,2.238363,0.444412,-0.104639,0.019019,-0.005899,167.993599,-0.994311,3.466330,5.950234,0.180926
1690687398.882998,1689261898.247536,2.232426,0.442606,-0.104665,0.018969,-0.005878,167.990555,-0.994309,3.466331,5.950228,0.180929
1690687398.891470,1689261898.256097,2.230415,0.446810,-0.104692,0.018948,-0.005914,167.987451,-0.994307,3.466319,5.950234,0.180926
1690687398.900436,1689261898.264368,2.225505,0.441035,-0.104644,0.018911,-0.005858,167.992851,-0.994313,3.466331,5.950252,0.180937
1690687398.916847,1689261898.281082,2.232187,0.452597,-0.104682,0.018958,-0.005965,167.988724,-0.994307,3.466326,5.950255,0.180933
1690687398.925196,1689261898.289433,2.233586,0.445758,-0.104657,0.018977,-0.005907,167.991479,-0.994310,3.466330,5.950256,0.180934
1690687398.932790,1689261898.297445,2.237490,0.445558,-0.104660,0.019011,-0.005909,167.991127,-0.994309,3.466334,5.950245,0.180940
1690687398.942039,1689261898.305857,2.238646,0.449745,-0.104674,0.019017,-0.005946,167.989661,-0.994307,3.466336,5.950248,0.180945
1690687398.958530,1689261898.322565,2.234694,0.444979,-0.104648,0.018987,-0.005901,167.992504,-0.994311,3.466330,5.950237,0.180947
1690687398.965936,1689261898.330795,2.239756,0.453821,-0.104754,0.019022,-0.005984,167.980463,-0.994298,3.466323,5.950234,0.180943
1690687398.975552,1689261898.339204,2.236785,0.446565,-0.104640,0.019004,-0.005916,167.993500,-0.994311,3.466314,5.950226,0.180943
1690687398.983479,1689261898.347515,2.244053,0.443844,-0.104586,0.019070,-0.005898,167.999688,-0.994316,3.466325,5.950221,0.180945
1690687398.991491,1689261898.356110,2.238565,0.444054,-0.104702,0.019021,-0.005897,167.986247,-0.994304,3.466321,5.950220,0.180941
1690687399.008443,1689261898.372725,2.235500,0.441111,-0.104669,0.018997,-0.005868,167.989996,-0.994308,3.466321,5.950212,0.180952
1690687399.016347,1689261898.381116,2.235953,0.439957,-0.104600,0.019003,-0.005857,167.997936,-0.994316,3.466314,5.950224,0.180953
1690687399.024179,1689261898.389344,2.234152,0.443149,-0.104639,0.018984,-0.005884,167.993526,-0.994312,3.466330,5.950228,0.180948
1690687399.032208,1689261898.397461,2.232917,0.444984,-0.104654,0.018972,-0.005899,167.991789,-0.994310,3.466333,5.950234,0.180938
1690687399.041729,1689261898.405886,2.235219,0.442652,-0.104543,0.018994,-0.005879,168.004610,-0.994322,3.466342,5.950239,0.180938
1690687399.057618,1689261898.422513,2.234061,0.432207,-0.104498,0.018994,-0.005786,168.009528,-0.994327,3.466335,5.950243,0.180954
1690687399.065573,1689261898.430770,2.237763,0.441908,-0.104597,0.019017,-0.005876,167.998386,-0.994316,3.466347,5.950243,0.180945
1690687399.074805,1689261898.439162,2.244107,0.447359,-0.104697,0.019066,-0.005931,167.986897,-0.994304,3.466335,5.950251,0.180948
1690687399.082789,1689261898.447572,2.239959,0.444808,-0.104678,0.019033,-0.005905,167.989049,-0.994307,3.466328,5.950240,0.180949
1690687399.090775,1689261898.455816,2.242701,0.459024,-0.104726,0.019043,-0.006031,167.983764,-0.994300,3.466332,5.950231,0.180948
1690687399.108172,1689261898.472765,2.244580,0.450540,-0.104799,0.019067,-0.005961,167.975273,-0.994293,3.466339,5.950231,0.180939
1690687399.116763,1689261898.481353,2.244814,0.452796,-0.104783,0.019067,-0.005980,167.977137,-0.994294,3.466331,5.950224,0.180938
1690687399.124723,1689261898.489427,2.238326,0.448950,-0.104748,0.019014,-0.005940,167.981136,-0.994299,3.466332,5.950229,0.180930
1690687399.134161,1689261898.497568,2.235290,0.447392,-0.104660,0.018990,-0.005922,167.991230,-0.994309,3.466332,5.950220,0.180934
1690687399.149522,1689261898.514228,2.233233,0.441530,-0.104607,0.018978,-0.005869,167.997210,-0.994315,3.466317,5.950237,0.180939
1690687399.150717,1689261898.514292,2.230367,0.448408,-0.104602,0.018947,-0.005926,167.997865,-0.994316,3.466326,5.950244,0.180943
1690687399.166168,1689261898.530854,2.229043,0.439214,-0.104563,0.018944,-0.005844,168.002227,-0.994321,3.466334,5.950259,0.180950
1690687399.174611,1689261898.539206,2.234386,0.450465,-0.104597,0.018980,-0.005947,167.998500,-0.994316,3.466332,5.950250,0.180944
1690687399.182553,1689261898.547485,2.237543,0.449725,-0.104614,0.019008,-0.005944,167.996584,-0.994314,3.466335,5.950253,0.180940
1690687399.190868,1689261898.555776,2.236019,0.450915,-0.104657,0.018993,-0.005954,167.991592,-0.994309,3.466331,5.950251,0.180941
1690687399.208479,1689261898.572770,2.234525,0.442109,-0.104601,0.018988,-0.005875,167.997826,-0.994316,3.466325,5.950238,0.180939
1690687399.216552,1689261898.581133,2.232000,0.444756,-0.104566,0.018964,-0.005895,168.001987,-0.994320,3.466325,5.950258,0.180956
1690687399.224570,1689261898.589202,2.228789,0.453519,-0.104627,0.018928,-0.005969,167.995121,-0.994313,3.466319,5.950245,0.180957
1690687399.233373,1689261898.597756,2.191356,0.433442,-0.104664,0.018621,-0.005761,167.990417,-0.994317,3.466253,5.950260,0.180979
1690687399.241103,1689261898.606103,2.093648,0.413600,-0.104397,0.017793,-0.005495,168.020630,-0.994361,3.466100,5.950320,0.181025
1690687399.257840,1689261898.622662,1.954898,0.435694,-0.104705,0.016567,-0.005566,167.985216,-0.994350,3.465861,5.950365,0.181049
1690687399.266097,1689261898.630830,1.774771,0.456712,-0.105151,0.014982,-0.005591,167.933755,-0.994328,3.465518,5.950444,0.181097
1690687399.274292,1689261898.639214,1.610709,0.458857,-0.105193,0.013557,-0.005460,167.928542,-0.994344,3.465133,5.950536,0.181154
1690687399.282402,1689261898.647445,1.454204,0.447705,-0.105236,0.012209,-0.005220,167.923129,-0.994359,3.464716,5.950637,0.181230
1690687399.291047,1689261898.655832,1.284617,0.459071,-0.105233,0.010726,-0.005163,167.923070,-0.994376,3.464192,5.950768,0.181258
1690687399.307688,1689261898.672503,1.123949,0.461070,-0.104954,0.009332,-0.005030,167.954836,-0.994421,3.463625,5.950928,0.181311
1690687399.316243,1689261898.681047,0.938058,0.467828,-0.104899,0.007713,-0.004918,167.960645,-0.994441,3.462878,5.951087,0.181395
1690687399.324631,1689261898.689371,0.767474,0.496402,-0.105488,0.006203,-0.005014,167.892347,-0.994389,3.462051,5.951262,0.181371
1690687399.333984,1689261898.698250,0.704533,0.422812,-0.105666,0.005724,-0.004319,167.871193,-0.994376,3.460870,5.951411,0.181323
1690687399.341484,1689261898.706033,0.411753,0.473272,-0.105213,0.003139,-0.004485,167.922605,-0.994435,3.460171,5.951643,0.181393
1690687399.350070,1689261898.714438,0.241673,0.508409,-0.105572,0.001629,-0.004635,167.880729,-0.994400,3.459121,5.951763,0.181416
1690687399.366340,1689261898.730862,0.118389,0.523235,-0.105626,0.000545,-0.004650,167.873907,-0.994395,3.458050,5.951995,0.181429
1690687399.374220,1689261898.739097,0.077010,0.521358,-0.105148,0.000190,-0.004595,167.928859,-0.994446,3.456649,5.952344,0.181483
1690687399.383235,1689261898.747868,0.002497,0.874089,-0.105099,-0.000780,-0.007588,167.933929,-0.994433,3.455127,5.953454,0.181030
1690687399.399847,1689261898.764570,-0.095442,0.834845,-0.104391,-0.001589,-0.007159,168.014818,-0.994509,3.453622,5.953850,0.181077
1690687399.400569,1689261898.764622,-0.162065,0.896896,-0.104264,-0.002223,-0.007637,168.028794,-0.994518,3.451848,5.954335,0.181029
1690687399.416466,1689261898.781058,-0.065952,0.779692,-0.104528,-0.001284,-0.006707,167.999285,-0.994498,3.449567,5.954556,0.181108
1690687399.424845,1689261898.789402,-0.027258,0.756497,-0.104405,-0.000926,-0.006541,168.013742,-0.994513,3.447252,5.954990,0.181015
1690687399.432728,1689261898.797427,-0.125779,0.838581,-0.103963,-0.001853,-0.007164,168.063908,-0.994554,3.445053,5.955792,0.180751
1690687399.441225,1689261898.805848,0.059702,0.710559,-0.104571,-0.000130,-0.006221,167.995212,-0.994498,3.442189,5.955970,0.180788
1690687399.458583,1689261898.822648,-0.016721,0.860695,-0.105143,-0.000935,-0.007454,167.928676,-0.994429,3.439249,5.956795,0.180685
1690687399.465465,1689261898.830814,0.182031,0.544744,-0.104845,0.001081,-0.004894,167.964281,-0.994476,3.436376,5.956807,0.180766
1690687399.474019,1689261898.839200,0.323269,0.501343,-0.104752,0.002347,-0.004646,167.975449,-0.994485,3.433180,5.957355,0.180793
1690687399.483211,1689261898.847922,0.471903,0.808724,-0.105175,0.003353,-0.007451,167.928475,-0.994420,3.429763,5.958816,0.180360
1690687399.491443,1689261898.855861,0.532274,0.817947,-0.104798,0.003871,-0.007585,167.972277,-0.994457,3.426604,5.959504,0.180221
1690687399.508223,1689261898.872712,0.626890,0.779357,-0.104333,0.004731,-0.007334,168.026345,-0.994504,3.423211,5.960243,0.180213
1690687399.516539,1689261898.881104,0.687913,0.738934,-0.104122,0.005299,-0.007038,168.050826,-0.994526,3.419807,5.960956,0.180116
1690687399.524858,1689261898.889380,0.762015,0.820998,-0.104405,0.005866,-0.007819,168.019136,-0.994487,3.416432,5.961730,0.179993
1690687399.532590,1689261898.897475,0.894292,0.853141,-0.104573,0.006983,-0.008220,168.000832,-0.994459,3.412935,5.962481,0.179791
1690687399.541494,1689261898.906087,0.908908,0.758444,-0.104061,0.007200,-0.007408,168.059218,-0.994517,3.409564,5.963022,0.179810
1690687399.558110,1689261898.922535,0.943061,0.818667,-0.103823,0.007444,-0.007959,168.087303,-0.994536,3.405944,5.963964,0.179676
1690687399.565907,1689261898.930744,1.028979,0.520580,-0.103756,0.008460,-0.005450,168.093107,-0.994552,3.402456,5.963994,0.179907
1690687399.574589,1689261898.939192,1.135964,0.714389,-0.102923,0.009219,-0.007221,168.191183,-0.994620,3.398681,5.965441,0.179471
1690687399.582736,1689261898.947556,1.346747,0.562076,-0.103798,0.011180,-0.006097,168.089786,-0.994517,3.394885,5.965698,0.179664
1690687399.590674,1689261898.955780,1.564040,0.797503,-0.103297,0.012857,-0.008330,168.151357,-0.994533,3.390951,5.967081,0.179180
1690687399.599571,1689261898.964375,1.859404,0.482080,-0.102744,0.015708,-0.005850,168.211795,-0.994567,3.386990,5.967321,0.179442
1690687399.617159,1689261898.980886,2.096170,0.415812,-0.103551,0.017818,-0.005502,168.118164,-0.994449,3.382913,5.968040,0.179315
1690687399.624230,1689261898.989140,2.486261,0.839085,-0.104227,0.020815,-0.009539,168.049768,-0.994290,3.378829,5.969543,0.178827
1690687399.633084,1689261898.997855,2.780037,0.455538,-0.104819,0.023708,-0.006493,167.973869,-0.994187,3.374772,5.969478,0.179208
1690687399.650168,1689261899.014767,2.447622,0.749959,-0.103500,0.020567,-0.008716,168.131507,-0.994379,3.368946,5.971303,0.178690
1690687399.665904,1689261899.030887,2.378642,0.661331,-0.102285,0.020057,-0.007861,168.269506,-0.994522,3.365740,5.971953,0.178792
1690687399.674120,1689261899.039244,2.393215,0.718967,-0.102750,0.020129,-0.008383,168.217055,-0.994468,3.362679,5.972625,0.178587
1690687399.682489,1689261899.047463,2.401756,0.685696,-0.103457,0.020227,-0.008117,168.135006,-0.994395,3.359548,5.973299,0.178430
1690687399.691355,1689261899.056098,2.490738,0.563326,-0.103938,0.021106,-0.007145,168.077286,-0.994334,3.356278,5.973566,0.178607
1690687399.708717,1689261899.072949,2.321778,0.372901,-0.104506,0.019809,-0.005352,168.007592,-0.994313,3.353527,5.973823,0.178598
1690687399.715866,1689261899.080741,2.068845,0.351499,-0.103579,0.017638,-0.004920,168.113718,-0.994453,3.351207,5.974320,0.178528
1690687399.725058,1689261899.089418,2.033338,0.534385,-0.102954,0.017169,-0.006463,168.188867,-0.994517,3.348407,5.975133,0.178475
1690687399.733373,1689261899.097733,1.772078,0.593175,-0.102563,0.014852,-0.006733,168.234061,-0.994593,3.345939,5.976123,0.178287
1690687399.741266,1689261899.106083,1.675409,0.601949,-0.102498,0.014005,-0.006722,168.241310,-0.994612,3.343284,5.976699,0.178329
1690687399.757949,1689261899.122705,1.868974,0.567320,-0.103323,0.015711,-0.006608,168.146360,-0.994502,3.340072,5.977164,0.178178
1690687399.766079,1689261899.130874,1.767368,0.460709,-0.102682,0.014928,-0.005582,168.218360,-0.994587,3.337225,5.977639,0.178095
1690687399.774536,1689261899.139175,1.662153,0.341558,-0.102966,0.014121,-0.004458,168.183652,-0.994575,3.334641,5.977919,0.178201
1690687399.782721,1689261899.147524,1.852440,0.697601,-0.104172,0.015443,-0.007736,168.050512,-0.994409,3.331204,5.979249,0.177725
1690687399.791279,1689261899.156078,1.969633,0.275901,-0.103441,0.016846,-0.004172,168.128186,-0.994484,3.328081,5.979202,0.178104
1690687399.807867,1689261899.172554,2.234119,0.358943,-0.104900,0.019059,-0.005159,167.961798,-0.994287,3.324494,5.979858,0.177855
1690687399.816042,1689261899.180904,2.343132,0.323094,-0.105254,0.020036,-0.004955,167.920429,-0.994231,3.321281,5.980464,0.177772
1690687399.824824,1689261899.189424,2.055673,0.572317,-0.103760,0.017323,-0.006827,168.096720,-0.994428,3.318985,5.981616,0.177476
1690687399.832844,1689261899.197851,2.507942,0.311628,-0.105494,0.021475,-0.005012,167.892632,-0.994175,3.315089,5.981814,0.177737
1690687399.840902,1689261899.205779,2.314676,0.355230,-0.105020,0.019761,-0.005203,167.948038,-0.994260,3.312420,5.982433,0.177614
1690687399.857654,1689261899.222674,2.448187,0.411875,-0.105456,0.020865,-0.005825,167.899126,-0.994188,3.309311,5.983134,0.177451
1690687399.866071,1689261899.231116,2.222903,0.282260,-0.104089,0.019036,-0.004468,168.053859,-0.994376,3.306733,5.983645,0.177386
1690687399.873876,1689261899.239145,1.815964,0.504758,-0.103877,0.015304,-0.006026,168.081477,-0.994454,3.304481,5.984567,0.177198
1690687399.882823,1689261899.247869,1.883315,0.263345,-0.104697,0.016103,-0.004005,167.983227,-0.994366,3.301505,5.984680,0.177440
1690687399.899549,1689261899.264242,1.599013,0.267865,-0.103757,0.013636,-0.003772,168.091480,-0.994502,3.296103,5.985993,0.177453
1690687399.916745,1689261899.281075,1.612936,0.604824,-0.103664,0.013452,-0.006707,168.106742,-0.994499,3.293126,5.987256,0.176966
1690687399.924793,1689261899.289418,1.652702,0.313164,-0.103276,0.014063,-0.004207,168.147511,-0.994544,3.290162,5.987259,0.177107
1690687399.932717,1689261899.297487,1.518299,0.424416,-0.103659,0.012794,-0.005056,168.104719,-0.994518,3.287294,5.988054,0.177093
1690687399.942435,1689261899.306281,1.545379,0.342407,-0.103355,0.013105,-0.004365,168.138638,-0.994549,3.284277,5.988650,0.177000
1690687399.958397,1689261899.322922,1.701394,0.752815,-0.104576,0.014079,-0.008084,168.004101,-0.994384,3.281074,5.990047,0.176625
1690687399.965685,1689261899.330765,1.725552,0.296509,-0.103600,0.014709,-0.004133,168.110052,-0.994502,3.277876,5.990001,0.176991
1690687399.974446,1689261899.339161,1.813937,0.663187,-0.104056,0.015141,-0.007401,168.063286,-0.994429,3.274638,5.991425,0.176534
1690687399.983115,1689261899.347495,1.912179,0.667423,-0.104247,0.015988,-0.007530,168.041656,-0.994394,3.271425,5.992032,0.176456
1690687399.992087,1689261899.356009,1.831077,0.555548,-0.102573,0.015397,-0.006460,168.232495,-0.994585,3.268418,5.992638,0.176501
1690687400.008259,1689261899.372766,2.144112,0.448535,-0.104701,0.018197,-0.005850,167.986319,-0.994320,3.264740,5.993018,0.176472
1690687400.016385,1689261899.381124,2.135856,0.378280,-0.104469,0.018191,-0.005229,168.011732,-0.994348,3.261706,5.993471,0.176599
1690687400.025013,1689261899.389228,1.814346,0.678225,-0.103375,0.015136,-0.007522,168.141887,-0.994499,3.259249,5.994646,0.176447
1690687400.032807,1689261899.397524,1.881335,0.666168,-0.103897,0.015725,-0.007486,168.081888,-0.994436,3.256037,5.995439,0.176163
1690687400.041251,1689261899.405869,1.817759,0.669900,-0.103839,0.015170,-0.007460,168.088346,-0.994450,3.253133,5.995956,0.176097
1690687400.057627,1689261899.422603,1.776123,0.686590,-0.104018,0.014792,-0.007569,168.067856,-0.994437,3.250279,5.996580,0.175979
1690687400.065515,1689261899.430833,1.687632,0.299940,-0.103590,0.014377,-0.004128,168.111254,-0.994508,3.247110,5.996506,0.176308
1690687400.074390,1689261899.439205,1.488296,0.366589,-0.103205,0.012588,-0.004522,168.156128,-0.994570,3.244610,5.997140,0.176202
1690687400.083143,1689261899.448003,1.482171,0.400800,-0.102806,0.012506,-0.004808,168.202539,-0.994611,3.241608,5.997917,0.176256
1690687400.091587,1689261899.456107,1.537908,0.341786,-0.102498,0.013044,-0.004342,168.237450,-0.994638,3.238507,5.998528,0.176337
1690687400.099773,1689261899.464450,1.549083,0.723018,-0.103523,0.012792,-0.007673,168.124291,-0.994515,3.235310,5.999947,0.175827
1690687400.116870,1689261899.481396,1.614902,0.640339,-0.102776,0.013444,-0.007005,168.209538,-0.994589,3.232259,6.000422,0.175806
1690687400.125199,1689261899.489451,1.684147,0.718529,-0.103797,0.013967,-0.007760,168.093260,-0.994470,3.229050,6.001189,0.175751
1690687400.133943,1689261899.497846,1.701217,0.725506,-0.103394,0.014112,-0.007830,168.139973,-0.994510,3.226079,6.001868,0.175643
1690687400.149688,1689261899.514246,1.537703,0.637178,-0.103024,0.012775,-0.006912,168.180643,-0.994573,3.223571,6.002237,0.175808
1690687400.150334,1689261899.514329,1.589664,0.724952,-0.102866,0.013148,-0.007718,168.200239,-0.994578,3.220423,6.003055,0.175701
1690687400.166206,1689261899.530801,1.510191,0.768244,-0.102206,0.012425,-0.008014,168.276440,-0.994653,3.217454,6.003695,0.175850
1690687400.175216,1689261899.539172,1.848500,0.581212,-0.104901,0.015510,-0.006734,167.964695,-0.994339,3.213636,6.003712,0.176100
1690687400.182709,1689261899.547470,1.729317,0.741253,-0.102856,0.014346,-0.007984,168.202302,-0.994561,3.211199,6.005080,0.175454
1690687400.191752,1689261899.556228,1.497617,0.730403,-0.102318,0.012348,-0.007676,168.262942,-0.994645,3.208524,6.005499,0.175663
1690687400.208542,1689261899.572768,1.535332,0.892920,-0.103575,0.012519,-0.009136,168.120373,-0.994501,3.205508,6.006164,0.175609
1690687400.216568,1689261899.581171,1.529120,0.683251,-0.102249,0.012664,-0.007294,168.270429,-0.994651,3.202842,6.006603,0.175567
1690687400.224983,1689261899.589414,1.417611,0.609583,-0.102449,0.011761,-0.006558,168.245996,-0.994647,3.200155,6.007290,0.175686
1690687400.233742,1689261899.597932,1.331309,0.745646,-0.102268,0.010892,-0.007660,168.268063,-0.994668,3.197287,6.007853,0.175635
1690687400.241082,1689261899.605860,1.295703,0.719014,-0.102418,0.010605,-0.007398,168.250245,-0.994657,3.194376,6.008292,0.175684
1690687400.257680,1689261899.622659,1.293133,0.754540,-0.102791,0.010548,-0.007708,168.207721,-0.994617,3.191539,6.009074,0.175539
1690687400.266203,1689261899.631119,1.348079,0.631712,-0.101614,0.011143,-0.006679,168.342173,-0.994739,3.188718,6.009794,0.175430
1690687400.274311,1689261899.639224,1.353044,0.688102,-0.102433,0.011130,-0.007182,168.248481,-0.994652,3.185638,6.010206,0.175458
1690687400.282547,1689261899.647558,1.404176,0.782430,-0.103288,0.011483,-0.008056,168.151329,-0.994553,3.182539,6.010983,0.175478
1690687400.291790,1689261899.656182,1.419216,0.730283,-0.102932,0.011663,-0.007612,168.191878,-0.994591,3.179542,6.011693,0.175382
1690687400.307827,1689261899.672565,1.481895,0.731138,-0.103135,0.012205,-0.007679,168.168735,-0.994563,3.176465,6.012239,0.175241
1690687400.316218,1689261899.680873,1.425137,0.721381,-0.102300,0.011727,-0.007533,168.264550,-0.994656,3.173395,6.012935,0.175291
1690687400.324467,1689261899.689357,1.410669,0.826402,-0.103434,0.011499,-0.008445,168.135027,-0.994534,3.170279,6.013661,0.175360
1690687400.334642,1689261899.697560,1.564861,0.791146,-0.103066,0.012872,-0.008273,168.177859,-0.994557,3.167231,6.014294,0.175272
1690687400.340758,1689261899.705795,1.505418,0.769423,-0.102710,0.012378,-0.008027,168.218297,-0.994602,3.164339,6.014974,0.175288
1690687400.350188,1689261899.714893,1.550319,0.809089,-0.104198,0.012720,-0.008430,168.047632,-0.994440,3.161242,6.015783,0.175089
1690687400.365918,1689261899.730823,1.437835,0.794739,-0.104244,0.011756,-0.008204,168.041525,-0.994448,3.158249,6.016316,0.175090
1690687400.374478,1689261899.739273,1.455566,0.783721,-0.103149,0.011929,-0.008111,168.167678,-0.994561,3.155123,6.017004,0.175167
1690687400.383276,1689261899.747848,1.451059,0.722468,-0.102590,0.011949,-0.007569,168.231325,-0.994623,3.152034,6.017652,0.175242
1690687400.399571,1689261899.764343,1.517380,0.826984,-0.103587,0.012423,-0.008548,168.118022,-0.994506,3.149113,6.018327,0.175102
1690687400.400260,1689261899.764424,1.463941,0.861989,-0.103864,0.011925,-0.008807,168.086246,-0.994481,3.146099,6.018876,0.175077
1690687400.416270,1689261899.781030,1.451042,0.783481,-0.102785,0.011893,-0.008101,168.209535,-0.994599,3.143030,6.019666,0.174946
1690687400.424896,1689261899.789401,1.483124,0.853699,-0.103988,0.012098,-0.008754,168.071938,-0.994466,3.139979,6.020251,0.174829
1690687400.433099,1689261899.797433,1.455980,0.824653,-0.103314,0.011894,-0.008469,168.149162,-0.994542,3.136961,6.020829,0.174831
1690687400.441133,1689261899.806146,1.458417,0.862065,-0.104242,0.011874,-0.008807,168.042612,-0.994442,3.133906,6.021636,0.174900
1690687400.449425,1689261899.814475,1.498230,0.762796,-0.103210,0.012318,-0.007969,168.160648,-0.994551,3.130992,6.022169,0.174938
1690687400.465665,1689261899.830829,1.476668,0.784180,-0.103001,0.012113,-0.008133,168.184809,-0.994574,3.127945,6.022804,0.174873
1690687400.474446,1689261899.839401,1.477707,0.840964,-0.103478,0.012067,-0.008632,168.130563,-0.994521,3.125050,6.023496,0.174888
1690687400.482876,1689261899.847742,1.477898,0.780846,-0.103312,0.012124,-0.008109,168.148981,-0.994542,3.122028,6.024068,0.174880
1690687400.499497,1689261899.864161,1.470596,0.825361,-0.102937,0.012024,-0.008484,168.192651,-0.994579,3.119114,6.024714,0.174688
1690687400.500085,1689261899.864262,1.458212,0.854543,-0.103644,0.011884,-0.008734,168.111492,-0.994505,3.116114,6.025338,0.174786
1690687400.516892,1689261899.881057,1.391152,0.768519,-0.103251,0.011383,-0.007923,168.155321,-0.994559,3.113247,6.025986,0.174832
1690687400.524385,1689261899.889141,1.424974,0.786595,-0.103128,0.011661,-0.008109,168.169941,-0.994567,3.110278,6.026509,0.174777
1690687400.532971,1689261899.897501,1.436252,0.740271,-0.102955,0.011802,-0.007715,168.189359,-0.994586,3.107334,6.027214,0.174670
1690687400.550056,1689261899.914489,1.428751,0.751853,-0.103675,0.011721,-0.007817,168.106474,-0.994511,3.104252,6.027895,0.174730
1690687400.550705,1689261899.914543,1.331652,0.836801,-0.103595,0.010802,-0.008466,168.116117,-0.994525,3.101470,6.028526,0.174637
1690687400.567092,1689261899.931134,1.309129,0.795707,-0.104479,0.010636,-0.008098,168.013762,-0.994437,3.098598,6.029060,0.174619
1690687400.574525,1689261899.939186,1.314196,0.823034,-0.104316,0.010657,-0.008338,168.032855,-0.994452,3.095782,6.029830,0.174520
1690687400.583024,1689261899.947757,1.242093,0.814066,-0.104250,0.010040,-0.008194,168.039906,-0.994467,3.092740,6.030313,0.174713
1690687400.590786,1689261899.955762,1.255647,0.829394,-0.104436,0.010142,-0.008341,168.018755,-0.994445,3.089795,6.031030,0.174599
1690687400.608192,1689261899.972716,1.293367,0.763623,-0.103727,0.010535,-0.007797,168.099950,-0.994520,3.086814,6.031668,0.174634
1690687400.616171,1689261899.980842,1.256118,0.728022,-0.103703,0.010244,-0.007455,168.102078,-0.994528,3.083742,6.032204,0.174636
1690687400.624439,1689261899.989102,1.242271,0.723304,-0.103927,0.010126,-0.007403,168.076241,-0.994506,3.080746,6.032804,0.174593
1690687400.633759,1689261899.997816,1.256302,0.742064,-0.103868,0.010231,-0.007578,168.083236,-0.994510,3.077664,6.033561,0.174514
1690687400.640668,1689261900.005817,1.295754,0.775297,-0.104328,0.010540,-0.007907,168.030835,-0.994456,3.074478,6.034143,0.174421
1690687400.657511,1689261900.022476,1.333675,0.794068,-0.104175,0.010853,-0.008103,168.048864,-0.994467,3.071494,6.034773,0.174360
1690687400.665750,1689261900.030831,1.292465,0.793512,-0.105044,0.010489,-0.008070,167.948526,-0.994380,3.068312,6.035444,0.174370
1690687400.674189,1689261900.039206,1.305145,0.753111,-0.104487,0.010641,-0.007725,168.012328,-0.994439,3.065292,6.036002,0.174333
1690687400.682329,1689261900.047440,1.310107,0.725678,-0.103832,0.010714,-0.007484,168.087494,-0.994509,3.062466,6.036692,0.174302
1690687400.691055,1689261900.055775,1.208264,0.763870,-0.104353,0.009791,-0.007729,168.027377,-0.994462,3.059335,6.037272,0.174363
1690687400.708131,1689261900.072842,1.278792,0.760743,-0.103946,0.010409,-0.007762,168.074546,-0.994498,3.056431,6.037987,0.174339
1690687400.715986,1689261900.080775,1.212705,0.802681,-0.104328,0.009794,-0.008069,168.030638,-0.994462,3.053483,6.038746,0.174342
1690687400.725007,1689261900.089376,1.214225,0.789059,-0.103799,0.009824,-0.007947,168.091414,-0.994518,3.050593,6.039418,0.174263
