__time,/vrpn_client_node/turtlebot7/pose/header/stamp,/vrpn_client_node/turtlebot7/pose/pose/orientation/pitch_deg,/vrpn_client_node/turtlebot7/pose/pose/orientation/roll_deg,/vrpn_client_node/turtlebot7/pose/pose/orientation/w,/vrpn_client_node/turtlebot7/pose/pose/orientation/x,/vrpn_client_node/turtlebot7/pose/pose/orientation/y,/vrpn_client_node/turtlebot7/pose/pose/orientation/yaw_deg,/vrpn_client_node/turtlebot7/pose/pose/orientation/z,/vrpn_client_node/turtlebot7/pose/pose/position/x,/vrpn_client_node/turtlebot7/pose/pose/position/y,/vrpn_client_node/turtlebot7/pose/pose/position/z
1690686513.935637,1689261542.105799,1.817616,1.386346,-0.205477,-0.018009,0.008575,-156.258407,0.978459,3.240921,5.839215,0.176615
1690686513.948106,1689261542.122527,1.815191,1.371667,-0.205525,-0.017962,0.008453,-156.253063,0.978451,3.240942,5.839200,0.176621
1690686513.956788,1689261542.131284,1.814661,1.376220,-0.205468,-0.017965,0.008494,-156.259603,0.978462,3.240927,5.839209,0.176601
1690686513.964512,1689261542.139107,1.817162,1.373714,-0.205524,-0.017983,0.008467,-156.253152,0.978450,3.240941,5.839201,0.176618
1690686513.972896,1689261542.147545,1.810529,1.369722,-0.205558,-0.017919,0.008445,-156.249355,0.978445,3.240946,5.839196,0.176603
1690686513.981725,1689261542.155862,1.815646,1.377485,-0.205415,-0.017976,0.008504,-156.265833,0.978473,3.240950,5.839194,0.176604
1690686514.051921,1689261542.172641,1.806870,1.368155,-0.205508,-0.017885,0.008439,-156.255208,0.978456,3.240949,5.839207,0.176618
1690686514.055492,1689261542.181095,1.811420,1.384661,-0.205504,-0.017953,0.008571,-156.255372,0.978454,3.240957,5.839201,0.176610
1690686514.055533,1689261542.189248,1.810126,1.382124,-0.205466,-0.017937,0.008553,-156.259803,0.978462,3.240945,5.839217,0.176611
1690686514.055594,1689261542.205940,1.810875,1.385082,-0.205461,-0.017949,0.008577,-156.260417,0.978463,3.240953,5.839213,0.176615
1690686514.055625,1689261542.206017,1.813300,1.384382,-0.205450,-0.017968,0.008567,-156.261614,0.978465,3.240940,5.839226,0.176623
1690686514.055681,1689261542.222756,1.813002,1.382566,-0.205431,-0.017962,0.008552,-156.263894,0.978469,3.240928,5.839217,0.176597
1690686514.056567,1689261542.230786,1.813643,1.386022,-0.205427,-0.017974,0.008580,-156.264292,0.978470,3.240940,5.839214,0.176615
1690686514.064808,1689261542.239197,1.817931,1.385335,-0.205464,-0.018010,0.008566,-156.259934,0.978462,3.240940,5.839205,0.176615
1690686514.081467,1689261542.255932,1.817529,1.378298,-0.205458,-0.017994,0.008507,-156.260804,0.978464,3.240927,5.839192,0.176599
1690686514.097714,1689261542.272751,1.815167,1.375260,-0.205548,-0.017969,0.008484,-156.250334,0.978445,3.240936,5.839195,0.176612
1690686514.106194,1689261542.281117,1.810283,1.372566,-0.205482,-0.017922,0.008471,-156.258202,0.978460,3.240937,5.839204,0.176612
1690686514.114477,1689261542.289453,1.811094,1.371682,-0.205541,-0.017928,0.008461,-156.251204,0.978448,3.240941,5.839195,0.176605
1690686514.122245,1689261542.297474,1.807741,1.376669,-0.205496,-0.017907,0.008510,-156.256513,0.978457,3.240944,5.839202,0.176613
1690686514.140621,1689261542.314262,1.809242,1.381480,-0.205491,-0.017929,0.008548,-156.256965,0.978457,3.240944,5.839214,0.176609
1690686514.148317,1689261542.322889,1.808761,1.380245,-0.205438,-0.017922,0.008540,-156.263237,0.978469,3.240940,5.839234,0.176608
1690686514.156007,1689261542.330883,1.818587,1.380383,-0.205451,-0.018006,0.008523,-156.261469,0.978465,3.240939,5.839228,0.176615
1690686514.164457,1689261542.339176,1.819165,1.387913,-0.205410,-0.018024,0.008587,-156.266175,0.978472,3.240935,5.839235,0.176623
1690686514.172791,1689261542.347554,1.818386,1.383494,-0.205466,-0.018010,0.008550,-156.259699,0.978461,3.240938,5.839220,0.176609
1690686514.181845,1689261542.355768,1.819259,1.386958,-0.205416,-0.018024,0.008579,-156.265527,0.978471,3.240942,5.839221,0.176621
1690686514.198049,1689261542.372578,1.813662,1.380380,-0.205388,-0.017964,0.008533,-156.268932,0.978478,3.240952,5.839206,0.176612
1690686514.206429,1689261542.381103,1.812946,1.375813,-0.205479,-0.017950,0.008494,-156.258424,0.978460,3.240947,5.839197,0.176618
1690686514.214890,1689261542.389505,1.812097,1.378551,-0.205415,-0.017947,0.008520,-156.265912,0.978473,3.240949,5.839194,0.176618
1690686514.223297,1689261542.397854,1.804873,1.371141,-0.205424,-0.017872,0.008469,-156.265093,0.978473,3.240958,5.839190,0.176609
1690686514.231313,1689261542.405864,1.814200,1.377234,-0.205486,-0.017964,0.008503,-156.257537,0.978458,3.240947,5.839209,0.176624
1690686514.247995,1689261542.422541,1.808796,1.373013,-0.205527,-0.017910,0.008476,-156.252893,0.978451,3.240943,5.839205,0.176610
1690686514.256347,1689261542.430846,1.807017,1.381554,-0.205442,-0.017910,0.008554,-156.262689,0.978468,3.240947,5.839223,0.176621
1690686514.264741,1689261542.439181,1.813638,1.386031,-0.205413,-0.017974,0.008581,-156.265958,0.978473,3.240946,5.839221,0.176614
1690686514.273227,1689261542.447506,1.812336,1.385265,-0.205417,-0.017961,0.008577,-156.265556,0.978472,3.240938,5.839216,0.176599
1690686514.289788,1689261542.464438,1.816014,1.389474,-0.205449,-0.018001,0.008605,-156.261612,0.978464,3.240933,5.839236,0.176616
1690686514.298099,1689261542.472688,1.820854,1.392884,-0.205391,-0.018048,0.008627,-156.268247,0.978476,3.240941,5.839228,0.176620
1690686514.305403,1689261542.480753,1.814072,1.385865,-0.205361,-0.017977,0.008580,-156.271988,0.978484,3.240947,5.839219,0.176603
1690686514.314618,1689261542.489531,1.816431,1.381870,-0.205469,-0.017991,0.008539,-156.259444,0.978461,3.240937,5.839223,0.176617
1690686514.322843,1689261542.497766,1.816673,1.379771,-0.205437,-0.017989,0.008521,-156.263236,0.978468,3.240950,5.839211,0.176624
1690686514.339779,1689261542.514348,1.813328,1.385090,-0.205346,-0.017969,0.008575,-156.273783,0.978487,3.240959,5.839200,0.176601
1690686514.347818,1689261542.522523,1.812434,1.380634,-0.205403,-0.017954,0.008537,-156.267264,0.978476,3.240960,5.839210,0.176610
1690686514.356142,1689261542.530846,1.812383,1.383635,-0.205428,-0.017959,0.008562,-156.264295,0.978470,3.240951,5.839205,0.176611
1690686514.364448,1689261542.539200,1.813330,1.375163,-0.205480,-0.017952,0.008487,-156.258283,0.978460,3.240941,5.839203,0.176600
1690686514.372904,1689261542.547517,1.807579,1.371968,-0.205488,-0.017898,0.008470,-156.257513,0.978459,3.240951,5.839218,0.176605
1690686514.381431,1689261542.556111,1.809402,1.371214,-0.205513,-0.017912,0.008460,-156.254520,0.978454,3.240945,5.839222,0.176627
1690686514.398092,1689261542.572687,1.815009,1.381903,-0.205522,-0.017979,0.008541,-156.253170,0.978450,3.240942,5.839236,0.176619
1690686514.406151,1689261542.580894,1.816301,1.383844,-0.205486,-0.017993,0.008556,-156.257394,0.978457,3.240945,5.839236,0.176621
1690686514.415231,1689261542.589633,1.809455,1.383996,-0.205478,-0.017935,0.008570,-156.258467,0.978460,3.240926,5.839233,0.176609
1690686514.422735,1689261542.597543,1.816657,1.380385,-0.205492,-0.017990,0.008526,-156.256686,0.978456,3.240943,5.839224,0.176622
1690686514.431613,1689261542.605885,1.813790,1.382944,-0.205419,-0.017970,0.008554,-156.265341,0.978472,3.240942,5.839210,0.176621
1690686514.447914,1689261542.622520,1.810608,1.375712,-0.205443,-0.017930,0.008498,-156.262653,0.978468,3.240932,5.839210,0.176597
1690686514.456181,1689261542.630893,1.814481,1.378640,-0.205489,-0.017968,0.008515,-156.257106,0.978457,3.240938,5.839196,0.176602
1690686514.464334,1689261542.639112,1.813710,1.382536,-0.205439,-0.017968,0.008550,-156.262944,0.978468,3.240947,5.839197,0.176620
1690686514.473150,1689261542.647544,1.808256,1.373211,-0.205445,-0.017905,0.008480,-156.262560,0.978468,3.240944,5.839197,0.176601
1690686514.489709,1689261542.664252,1.809506,1.373766,-0.205471,-0.017917,0.008483,-156.259482,0.978463,3.240953,5.839195,0.176593
1690686514.497559,1689261542.672517,1.811692,1.377262,-0.205417,-0.017942,0.008509,-156.265625,0.978473,3.240952,5.839209,0.176611
1690686514.505727,1689261542.680787,1.808289,1.375041,-0.205531,-0.017910,0.008494,-156.252410,0.978450,3.240940,5.839216,0.176627
1690686514.514536,1689261542.689467,1.810265,1.381909,-0.205497,-0.017938,0.008550,-156.256240,0.978456,3.240940,5.839225,0.176621
1690686514.522212,1689261542.697451,1.809645,1.382153,-0.205455,-0.017933,0.008554,-156.261118,0.978465,3.240944,5.839229,0.176609
1690686514.531444,1689261542.705894,1.817859,1.392956,-0.205419,-0.018022,0.008632,-156.264994,0.978470,3.240928,5.839226,0.176627
1690686514.548653,1689261542.722729,1.815023,1.384833,-0.205457,-0.017984,0.008567,-156.260801,0.978463,3.240918,5.839222,0.176614
1690686514.556223,1689261542.730777,1.816753,1.380663,-0.205485,-0.017991,0.008528,-156.257609,0.978458,3.240937,5.839220,0.176637
1690686514.564410,1689261542.739196,1.813349,1.391177,-0.205377,-0.017980,0.008626,-156.270020,0.978480,3.240952,5.839208,0.176615
1690686514.573083,1689261542.747859,1.810727,1.383815,-0.205426,-0.017945,0.008567,-156.264540,0.978471,3.240936,5.839200,0.176589
1690686514.589993,1689261542.764425,1.813805,1.373666,-0.205495,-0.017954,0.008473,-156.256566,0.978457,3.240940,5.839200,0.176640
1690686514.598042,1689261542.772767,1.813840,1.376601,-0.205435,-0.017959,0.008500,-156.263528,0.978469,3.240944,5.839191,0.176604
1690686514.606387,1689261542.781111,1.815391,1.380713,-0.205394,-0.017979,0.008533,-156.268224,0.978477,3.240949,5.839203,0.176622
1690686514.614544,1689261542.789307,1.809883,1.378379,-0.205431,-0.017928,0.008522,-156.263967,0.978470,3.240946,5.839207,0.176620
1690686514.622583,1689261542.797471,1.812840,1.375234,-0.205480,-0.017948,0.008489,-156.258271,0.978460,3.240952,5.839209,0.176615
1690686514.631207,1689261542.805890,1.804199,1.382260,-0.205453,-0.017887,0.008565,-156.261514,0.978466,3.240950,5.839227,0.176624
1690686514.648216,1689261542.822973,1.808307,1.378780,-0.205511,-0.017916,0.008527,-156.254674,0.978454,3.240942,5.839224,0.176622
1690686514.657124,1689261542.830776,1.814552,1.382976,-0.205497,-0.017977,0.008552,-156.256161,0.978455,3.240928,5.839230,0.176605
1690686514.664495,1689261542.839187,1.813325,1.382355,-0.205497,-0.017965,0.008548,-156.256143,0.978455,3.240926,5.839231,0.176626
1690686514.673285,1689261542.847848,1.817519,1.382361,-0.205417,-0.018000,0.008542,-156.265486,0.978472,3.240936,5.839223,0.176631
1690686514.680685,1689261542.855748,1.815432,1.381364,-0.205457,-0.017981,0.008537,-156.260833,0.978464,3.240935,5.839207,0.176609
1690686514.697825,1689261542.872818,1.819145,1.386252,-0.205463,-0.018022,0.008572,-156.259966,0.978461,3.240946,5.839201,0.176622
1690686514.706140,1689261542.881042,1.817057,1.379429,-0.205440,-0.017991,0.008518,-156.262819,0.978467,3.240932,5.839191,0.176603
1690686514.714232,1689261542.889215,1.814380,1.380563,-0.205419,-0.017970,0.008533,-156.265356,0.978472,3.240940,5.839192,0.176615
1690686514.722333,1689261542.897455,1.811893,1.377331,-0.205419,-0.017943,0.008510,-156.265381,0.978473,3.240953,5.839192,0.176634
1690686514.731369,1689261542.905865,1.807908,1.376651,-0.205470,-0.017909,0.008510,-156.259554,0.978463,3.240940,5.839206,0.176612
1690686514.747750,1689261542.922493,1.809894,1.378213,-0.205475,-0.017928,0.008520,-156.258916,0.978461,3.240944,5.839211,0.176634
1690686514.756749,1689261542.930828,1.811109,1.383513,-0.205473,-0.017948,0.008563,-156.258960,0.978461,3.240942,5.839212,0.176609
1690686514.764746,1689261542.939179,1.814098,1.379538,-0.205429,-0.017966,0.008524,-156.264151,0.978470,3.240946,5.839218,0.176611
1690686514.773124,1689261542.947523,1.810194,1.379440,-0.205459,-0.017933,0.008530,-156.260699,0.978464,3.240944,5.839224,0.176613
1690686514.790546,1689261542.964446,1.811358,1.383531,-0.205446,-0.017950,0.008563,-156.262170,0.978466,3.240932,5.839222,0.176627
1690686514.798730,1689261542.972764,1.817413,1.379118,-0.205503,-0.017994,0.008513,-156.255521,0.978454,3.240929,5.839215,0.176628
1690686514.806594,1689261542.980784,1.819762,1.387210,-0.205455,-0.018029,0.008579,-156.260853,0.978463,3.240942,5.839211,0.176618
1690686514.815403,1689261542.989223,1.819537,1.379263,-0.205491,-0.018013,0.008511,-156.256789,0.978456,3.240937,5.839206,0.176616
1690686514.823420,1689261542.997781,1.816520,1.383008,-0.205431,-0.017993,0.008550,-156.263885,0.978469,3.240943,5.839192,0.176604
1690686514.839991,1689261543.014332,1.814603,1.380828,-0.205423,-0.017973,0.008534,-156.264799,0.978471,3.240951,5.839190,0.176616
1690686514.848148,1689261543.022515,1.815807,1.378373,-0.205425,-0.017979,0.008511,-156.264594,0.978471,3.240959,5.839183,0.176599
1690686514.856984,1689261543.030859,1.811312,1.370671,-0.205536,-0.017928,0.008452,-156.251895,0.978449,3.240950,5.839192,0.176614
1690686514.864729,1689261543.039200,1.807799,1.379580,-0.205466,-0.017913,0.008535,-156.259958,0.978463,3.240952,5.839192,0.176605
1690686514.873101,1689261543.047484,1.814054,1.384979,-0.205423,-0.017976,0.008571,-156.264733,0.978471,3.240950,5.839203,0.176623
1690686514.889444,1689261543.064467,1.817168,1.383954,-0.205462,-0.018001,0.008556,-156.260230,0.978462,3.240949,5.839220,0.176625
1690686514.897322,1689261543.072456,1.819547,1.387264,-0.205495,-0.018027,0.008579,-156.256273,0.978455,3.240944,5.839217,0.176624
1690686514.906379,1689261543.081157,1.813827,1.390378,-0.205505,-0.017984,0.008616,-156.255040,0.978453,3.240938,5.839221,0.176620
1690686514.914177,1689261543.089273,1.819554,1.379178,-0.205490,-0.018013,0.008510,-156.256947,0.978456,3.240939,5.839213,0.176624
1690686514.923090,1689261543.097845,1.819707,1.375833,-0.205536,-0.018008,0.008481,-156.251631,0.978447,3.240922,5.839211,0.176612
1690686514.930932,1689261543.106018,1.815799,1.386463,-0.205391,-0.017993,0.008581,-156.268481,0.978477,3.240940,5.839199,0.176612
1690686514.948394,1689261543.122783,1.817384,1.378978,-0.205490,-0.017994,0.008512,-156.257036,0.978457,3.240938,5.839196,0.176605
1690686514.956171,1689261543.130876,1.813700,1.383038,-0.205372,-0.017969,0.008556,-156.270837,0.978482,3.240955,5.839186,0.176611
1690686514.964546,1689261543.139223,1.812509,1.372176,-0.205498,-0.017940,0.008463,-156.256266,0.978456,3.240956,5.839184,0.176634
1690686514.972986,1689261543.147759,1.810405,1.383299,-0.205407,-0.017941,0.008563,-156.266716,0.978475,3.240946,5.839182,0.176612
1690686514.989839,1689261543.164298,1.811149,1.382569,-0.205444,-0.017947,0.008555,-156.262366,0.978467,3.240961,5.839188,0.176611
1690686514.997992,1689261543.172476,1.808549,1.374757,-0.205453,-0.017911,0.008493,-156.261554,0.978466,3.240955,5.839199,0.176600
1690686515.006852,1689261543.181112,1.813271,1.382246,-0.205565,-0.017965,0.008546,-156.248236,0.978441,3.240942,5.839215,0.176620
1690686515.014731,1689261543.189470,1.809724,1.381399,-0.205486,-0.017933,0.008547,-156.257492,0.978458,3.240944,5.839219,0.176621
1690686515.031310,1689261543.205911,1.811284,1.382393,-0.205480,-0.017948,0.008553,-156.258141,0.978459,3.240923,5.839226,0.176596
1690686515.040108,1689261543.214433,1.817608,1.384285,-0.205438,-0.018005,0.008558,-156.263030,0.978467,3.240928,5.839211,0.176594
1690686515.047889,1689261543.222685,1.815009,1.383929,-0.205442,-0.017982,0.008560,-156.262551,0.978467,3.240932,5.839226,0.176618
1690686515.055881,1689261543.230771,1.816988,1.381352,-0.205419,-0.017994,0.008535,-156.265237,0.978472,3.240937,5.839225,0.176621
1690686515.064838,1689261543.239228,1.815106,1.376598,-0.205508,-0.017970,0.008496,-156.254924,0.978454,3.240940,5.839208,0.176621
1690686515.073029,1689261543.247568,1.813418,1.382268,-0.205408,-0.017965,0.008549,-156.266568,0.978474,3.240946,5.839193,0.176610
1690686515.089996,1689261543.264094,1.812814,1.379058,-0.205466,-0.017955,0.008522,-156.259909,0.978463,3.240939,5.839195,0.176610
1690686515.097035,1689261543.272566,1.811029,1.379213,-0.205440,-0.017940,0.008527,-156.262954,0.978468,3.240953,5.839201,0.176611
1690686515.106513,1689261543.281142,1.811061,1.376824,-0.205504,-0.017936,0.008505,-156.255538,0.978455,3.240951,5.839202,0.176611
1690686515.113975,1689261543.289116,1.807329,1.375646,-0.205408,-0.017901,0.008504,-156.266810,0.978476,3.240947,5.839200,0.176601
1690686515.122883,1689261543.297448,1.807273,1.379827,-0.205466,-0.017909,0.008538,-156.259992,0.978463,3.240952,5.839209,0.176623
1690686515.131112,1689261543.305938,1.808476,1.386756,-0.205382,-0.017931,0.008597,-156.269591,0.978480,3.240953,5.839220,0.176620
1690686515.147895,1689261543.322511,1.812888,1.383728,-0.205431,-0.017963,0.008562,-156.263922,0.978469,3.240947,5.839212,0.176610
1690686515.156127,1689261543.330846,1.817291,1.384395,-0.205467,-0.018003,0.008559,-156.259533,0.978461,3.240946,5.839221,0.176616
1690686515.164483,1689261543.339182,1.817480,1.385281,-0.205467,-0.018006,0.008567,-156.259543,0.978461,3.240937,5.839229,0.176618
1690686515.172948,1689261543.347545,1.815217,1.391532,-0.205374,-0.017997,0.008626,-156.270391,0.978480,3.240944,5.839210,0.176613
1690686515.180914,1689261543.355847,1.818296,1.380990,-0.205479,-0.018005,0.008528,-156.258215,0.978459,3.240943,5.839197,0.176609
1690686515.198084,1689261543.372811,1.817880,1.383467,-0.205386,-0.018005,0.008552,-156.269045,0.978478,3.240966,5.839199,0.176606
1690686515.206264,1689261543.380957,1.814455,1.376386,-0.205419,-0.017964,0.008497,-156.265340,0.978472,3.240942,5.839199,0.176598
1690686515.214428,1689261543.389198,1.810466,1.379979,-0.205388,-0.017936,0.008535,-156.269023,0.978479,3.240955,5.839194,0.176619
1690686515.223066,1689261543.397765,1.811330,1.372414,-0.205456,-0.017930,0.008468,-156.261168,0.978465,3.240950,5.839194,0.176612
1690686515.231508,1689261543.406219,1.806463,1.369588,-0.205506,-0.017884,0.008452,-156.255454,0.978456,3.240955,5.839200,0.176621
1690686515.247756,1689261543.422516,1.802865,1.380116,-0.205438,-0.017871,0.008549,-156.263231,0.978470,3.240948,5.839212,0.176609
1690686515.256616,1689261543.430852,1.813043,1.386595,-0.205438,-0.017970,0.008586,-156.262981,0.978467,3.240958,5.839219,0.176613
1690686515.264426,1689261543.439214,1.810202,1.386682,-0.205460,-0.017946,0.008592,-156.260518,0.978463,3.240941,5.839223,0.176610
1690686515.272620,1689261543.447463,1.813886,1.385407,-0.205468,-0.017975,0.008574,-156.259458,0.978461,3.240945,5.839222,0.176618
1690686515.281471,1689261543.456188,1.810698,1.384847,-0.205395,-0.017946,0.008576,-156.268065,0.978477,3.240936,5.839234,0.176626
1690686515.297489,1689261543.472558,1.815704,1.387108,-0.205442,-0.017994,0.008586,-156.262514,0.978466,3.240938,5.839226,0.176614
1690686515.305739,1689261543.480799,1.812943,1.384247,-0.205477,-0.017965,0.008566,-156.258456,0.978460,3.240946,5.839215,0.176621
1690686515.314142,1689261543.489275,1.817065,1.381529,-0.205417,-0.017995,0.008536,-156.265458,0.978472,3.240951,5.839211,0.176620
1690686515.322799,1689261543.497792,1.812198,1.377039,-0.205423,-0.017946,0.008506,-156.264974,0.978472,3.240951,5.839192,0.176608
1690686515.339997,1689261543.514444,1.812553,1.384383,-0.205356,-0.017961,0.008570,-156.272662,0.978485,3.240937,5.839203,0.176603
1690686515.347878,1689261543.522559,1.805255,1.383400,-0.205359,-0.017897,0.008574,-156.272449,0.978486,3.240942,5.839199,0.176595
1690686515.356124,1689261543.530845,1.817661,1.375715,-0.205411,-0.017990,0.008486,-156.266305,0.978474,3.240950,5.839206,0.176616
1690686515.364186,1689261543.539113,1.804639,1.382211,-0.205438,-0.017890,0.008564,-156.263263,0.978469,3.240946,5.839204,0.176618
1690686515.372513,1689261543.547443,1.804098,1.383231,-0.205435,-0.017888,0.008574,-156.263604,0.978470,3.240947,5.839213,0.176619
1690686515.389897,1689261543.564434,1.811197,1.382804,-0.205469,-0.017948,0.008557,-156.259432,0.978462,3.240943,5.839214,0.176620
1690686515.397697,1689261543.572579,1.814102,1.390314,-0.205438,-0.017986,0.008616,-156.262900,0.978467,3.240946,5.839226,0.176614
1690686515.406564,1689261543.581278,1.814637,1.386806,-0.205431,-0.017984,0.008585,-156.263855,0.978469,3.240943,5.839234,0.176621
1690686515.414914,1689261543.589495,1.816618,1.382402,-0.205434,-0.017993,0.008544,-156.263513,0.978468,3.240924,5.839230,0.176616
1690686515.422714,1689261543.597591,1.813721,1.383413,-0.205432,-0.017970,0.008558,-156.263756,0.978469,3.240940,5.839224,0.176612
1690686515.431898,1689261543.605931,1.814974,1.386491,-0.205430,-0.017986,0.008582,-156.263924,0.978469,3.240936,5.839210,0.176620
1690686515.447798,1689261543.622551,1.816689,1.379316,-0.205384,-0.017988,0.008519,-156.269368,0.978479,3.240945,5.839202,0.176611
1690686515.455724,1689261543.630837,1.814141,1.382086,-0.205424,-0.017971,0.008546,-156.264733,0.978471,3.240948,5.839192,0.176599
1690686515.464224,1689261543.639147,1.809396,1.368779,-0.205496,-0.017907,0.008440,-156.256629,0.978458,3.240949,5.839195,0.176630
1690686515.472785,1689261543.647548,1.810559,1.381974,-0.205417,-0.017940,0.008552,-156.265531,0.978473,3.240939,5.839204,0.176608
1690686515.481704,1689261543.656376,1.806041,1.382510,-0.205405,-0.017903,0.008565,-156.266996,0.978476,3.240942,5.839205,0.176601
1690686515.497961,1689261543.672989,1.808019,1.383402,-0.205389,-0.017921,0.008569,-156.268927,0.978479,3.240947,5.839211,0.176619
1690686515.505770,1689261543.680873,1.807920,1.384052,-0.205420,-0.017922,0.008574,-156.265231,0.978472,3.240947,5.839219,0.176611
1690686515.514310,1689261543.689420,1.810971,1.385422,-0.205419,-0.017950,0.008580,-156.265331,0.978472,3.240937,5.839221,0.176617
1690686515.523088,1689261543.698025,1.810920,1.382971,-0.205440,-0.017945,0.008559,-156.262815,0.978468,3.240943,5.839228,0.176620
1690686515.539728,1689261543.714468,1.814760,1.387560,-0.205428,-0.017986,0.008592,-156.264122,0.978469,3.240931,5.839224,0.176601
1690686515.547810,1689261543.722520,1.817204,1.380441,-0.205474,-0.017995,0.008526,-156.258824,0.978460,3.240942,5.839214,0.176608
1690686515.555886,1689261543.730896,1.819208,1.387654,-0.205439,-0.018025,0.008584,-156.262812,0.978466,3.240936,5.839214,0.176624
1690686515.564365,1689261543.739196,1.814646,1.388560,-0.205385,-0.017987,0.008601,-156.269195,0.978478,3.240958,5.839193,0.176609
1690686515.581286,1689261543.755901,1.816020,1.384296,-0.205429,-0.017991,0.008561,-156.264000,0.978469,3.240947,5.839196,0.176597
1690686515.589755,1689261543.764164,1.814665,1.377983,-0.205373,-0.017968,0.008511,-156.270707,0.978482,3.240958,5.839198,0.176608
1690686515.598023,1689261543.772790,1.812727,1.377516,-0.205433,-0.017951,0.008509,-156.263757,0.978470,3.240943,5.839197,0.176597
1690686515.606399,1689261543.781118,1.808211,1.373924,-0.205487,-0.017906,0.008486,-156.257553,0.978459,3.240954,5.839212,0.176626
1690686515.614127,1689261543.789165,1.809628,1.379060,-0.205467,-0.017928,0.008528,-156.259854,0.978463,3.240940,5.839214,0.176600
1690686515.623288,1689261543.797795,1.811003,1.381676,-0.205449,-0.017944,0.008548,-156.261813,0.978466,3.240937,5.839211,0.176594
1690686515.639760,1689261543.814461,1.809803,1.378633,-0.205426,-0.017928,0.008524,-156.264631,0.978471,3.240953,5.839218,0.176598
1690686515.647236,1689261543.822439,1.814824,1.381583,-0.205463,-0.017976,0.008540,-156.260087,0.978462,3.240937,5.839231,0.176616
1690686515.655644,1689261543.830790,1.815999,1.386835,-0.205404,-0.017995,0.008584,-156.266889,0.978474,3.240937,5.839233,0.176608
1690686515.672886,1689261543.847530,1.818706,1.388671,-0.205444,-0.018022,0.008594,-156.262192,0.978465,3.240940,5.839231,0.176614
1690686515.673610,1689261543.847589,1.813296,1.387681,-0.205434,-0.017974,0.008595,-156.263417,0.978468,3.240951,5.839212,0.176609
1690686515.690020,1689261543.864456,1.819210,1.380841,-0.205441,-0.018012,0.008526,-156.262702,0.978467,3.240945,5.839205,0.176602
1690686515.697455,1689261543.872581,1.812100,1.377595,-0.205467,-0.017946,0.008511,-156.259792,0.978463,3.240940,5.839195,0.176587
1690686515.705513,1689261543.880877,1.818720,1.378168,-0.205490,-0.018004,0.008503,-156.256980,0.978457,3.240944,5.839190,0.176601
1690686515.722950,1689261543.897876,1.816041,1.374747,-0.205463,-0.017975,0.008479,-156.260260,0.978463,3.240959,5.839205,0.176609
1690686515.723157,1689261543.897931,1.809530,1.371836,-0.205502,-0.017914,0.008465,-156.255784,0.978456,3.240937,5.839206,0.176606
1690686515.731489,1689261543.906292,1.809335,1.375617,-0.205446,-0.017919,0.008499,-156.262295,0.978467,3.240937,5.839201,0.176598
1690686515.747745,1689261543.922502,1.805799,1.378479,-0.205427,-0.017894,0.008530,-156.264583,0.978472,3.240944,5.839209,0.176587
1690686515.756121,1689261543.930882,1.813381,1.383137,-0.205508,-0.017967,0.008555,-156.254912,0.978453,3.240945,5.839227,0.176604
1690686515.764813,1689261543.939211,1.816265,1.385854,-0.205476,-0.017997,0.008573,-156.258546,0.978459,3.240934,5.839225,0.176612
1690686515.772338,1689261543.947487,1.813528,1.395074,-0.205396,-0.017989,0.008659,-156.267802,0.978475,3.240935,5.839222,0.176620
1690686515.790179,1689261543.964611,1.817733,1.385156,-0.205474,-0.018008,0.008565,-156.258731,0.978459,3.240931,5.839220,0.176604
1690686515.797584,1689261543.972515,1.816488,1.385752,-0.205425,-0.017998,0.008573,-156.264436,0.978470,3.240938,5.839226,0.176599
1690686515.805791,1689261543.980824,1.820318,1.384033,-0.205456,-0.018028,0.008551,-156.260778,0.978463,3.240941,5.839206,0.176618
1690686515.814535,1689261543.989265,1.816822,1.384530,-0.205410,-0.017998,0.008562,-156.266270,0.978473,3.240948,5.839200,0.176607
1690686515.822915,1689261543.997566,1.810775,1.379725,-0.205390,-0.017938,0.008533,-156.268771,0.978479,3.240957,5.839201,0.176607
1690686515.839914,1689261544.014462,1.810465,1.372690,-0.205485,-0.017923,0.008471,-156.257856,0.978460,3.240949,5.839181,0.176591
1690686515.847765,1689261544.022537,1.809359,1.376132,-0.205457,-0.017920,0.008503,-156.260998,0.978465,3.240945,5.839182,0.176596
1690686515.856190,1689261544.030868,1.809849,1.378255,-0.205475,-0.017928,0.008520,-156.258921,0.978461,3.240956,5.839193,0.176610
1690686515.863895,1689261544.039143,1.813878,1.380448,-0.205450,-0.017966,0.008532,-156.261734,0.978466,3.240955,5.839212,0.176620
1690686515.872921,1689261544.047561,1.810527,1.378680,-0.205468,-0.017935,0.008523,-156.259667,0.978462,3.240953,5.839211,0.176602
1690686515.889606,1689261544.064465,1.808133,1.379334,-0.205467,-0.017915,0.008533,-156.259786,0.978463,3.240944,5.839215,0.176612
1690686515.897193,1689261544.072469,1.814766,1.382400,-0.205513,-0.017978,0.008546,-156.254299,0.978452,3.240934,5.839221,0.176624
1690686515.906008,1689261544.081191,1.816724,1.386616,-0.205452,-0.018002,0.008580,-156.261285,0.978464,3.240932,5.839224,0.176613
1690686515.914220,1689261544.089253,1.818631,1.385886,-0.205499,-0.018017,0.008569,-156.255802,0.978454,3.240936,5.839224,0.176629
1690686515.930937,1689261544.105874,1.817323,1.390378,-0.205370,-0.018013,0.008612,-156.270810,0.978481,3.240940,5.839219,0.176616
1690686515.931357,1689261544.105925,1.815511,1.379508,-0.205501,-0.017979,0.008520,-156.255714,0.978455,3.240940,5.839205,0.176609
1690686515.947960,1689261544.122540,1.810511,1.383594,-0.205401,-0.017943,0.008566,-156.267386,0.978476,3.240949,5.839199,0.176610
1690686515.955566,1689261544.130814,1.811614,1.375732,-0.205452,-0.017938,0.008496,-156.261534,0.978466,3.240947,5.839188,0.176595
1690686515.964362,1689261544.139213,1.817594,1.384262,-0.205404,-0.018004,0.008559,-156.266963,0.978474,3.240951,5.839196,0.176618
1690686515.972703,1689261544.147536,1.809534,1.374230,-0.205422,-0.017918,0.008487,-156.265104,0.978473,3.240946,5.839191,0.176614
1690686515.989835,1689261544.164377,1.808862,1.375389,-0.205463,-0.017914,0.008498,-156.260353,0.978464,3.240942,5.839204,0.176623
1690686515.998243,1689261544.172920,1.807880,1.376265,-0.205469,-0.017908,0.008507,-156.259670,0.978463,3.240946,5.839206,0.176592
1690686516.006408,1689261544.181127,1.810120,1.383145,-0.205454,-0.017939,0.008562,-156.261195,0.978465,3.240940,5.839209,0.176605
1690686516.014391,1689261544.189259,1.812299,1.383020,-0.205419,-0.017957,0.008557,-156.265289,0.978472,3.240938,5.839223,0.176612
1690686516.022440,1689261544.197478,1.811296,1.381825,-0.205472,-0.017947,0.008548,-156.259164,0.978461,3.240944,5.839221,0.176612
1690686516.039455,1689261544.214461,1.812987,1.385949,-0.205420,-0.017968,0.008581,-156.265089,0.978471,3.240940,5.839207,0.176601
1690686516.047567,1689261544.222648,1.810346,1.384297,-0.205444,-0.017943,0.008571,-156.262427,0.978467,3.240943,5.839204,0.176615
1690686516.056027,1689261544.230875,1.812788,1.383067,-0.205442,-0.017962,0.008557,-156.262651,0.978467,3.240951,5.839199,0.176609
1690686516.064637,1689261544.239213,1.814465,1.383573,-0.205404,-0.017976,0.008559,-156.266987,0.978475,3.240936,5.839196,0.176605
1690686516.073133,1689261544.247766,1.818983,1.376837,-0.205464,-0.018003,0.008492,-156.259994,0.978462,3.240944,5.839194,0.176628
1690686516.081419,1689261544.256071,1.810611,1.372848,-0.205504,-0.017925,0.008472,-156.255543,0.978455,3.240953,5.839199,0.176607
1690686516.098111,1689261544.273047,1.804422,1.374812,-0.205477,-0.017876,0.008500,-156.258843,0.978462,3.240955,5.839193,0.176613
1690686516.105950,1689261544.281146,1.814206,1.391655,-0.205320,-0.017988,0.008630,-156.276706,0.978492,3.240951,5.839187,0.176611
1690686516.113924,1689261544.289171,1.807798,1.375934,-0.205486,-0.017907,0.008504,-156.257696,0.978459,3.240950,5.839193,0.176611
1690686516.131655,1689261544.305928,1.808950,1.380914,-0.205442,-0.017925,0.008545,-156.262718,0.978468,3.240953,5.839200,0.176608
1690686516.139716,1689261544.314268,1.810178,1.384948,-0.205442,-0.017943,0.008577,-156.262648,0.978467,3.240940,5.839214,0.176615
1690686516.147306,1689261544.322509,1.815249,1.385248,-0.205472,-0.017987,0.008570,-156.259001,0.978460,3.240935,5.839217,0.176602
1690686516.155596,1689261544.330881,1.814132,1.386074,-0.205481,-0.017979,0.008579,-156.257977,0.978458,3.240941,5.839217,0.176608
1690686516.164064,1689261544.339191,1.817626,1.394259,-0.205398,-0.018023,0.008644,-156.267496,0.978474,3.240937,5.839206,0.176581
1690686516.172355,1689261544.347488,1.815908,1.392074,-0.205438,-0.018004,0.008628,-156.262844,0.978466,3.240945,5.839205,0.176605
1690686516.180828,1689261544.355915,1.820119,1.383991,-0.205413,-0.018026,0.008552,-156.265878,0.978472,3.240955,5.839199,0.176618
1690686516.198028,1689261544.372862,1.812991,1.383152,-0.205381,-0.017963,0.008558,-156.269754,0.978480,3.240951,5.839182,0.176594
1690686516.205643,1689261544.380784,1.815853,1.378799,-0.205487,-0.017980,0.008514,-156.257348,0.978458,3.240949,5.839192,0.176621
1690686516.214314,1689261544.389222,1.808501,1.378244,-0.205446,-0.017916,0.008523,-156.262325,0.978467,3.240945,5.839185,0.176606
1690686516.223328,1689261544.397822,1.815180,1.386508,-0.205429,-0.017988,0.008582,-156.264063,0.978469,3.240954,5.839188,0.176619
1690686516.231226,1689261544.405881,1.806795,1.373918,-0.205500,-0.017894,0.008488,-156.256105,0.978457,3.240947,5.839195,0.176617
1690686516.247500,1689261544.422531,1.811313,1.389001,-0.205352,-0.017959,0.008611,-156.273098,0.978486,3.240947,5.839200,0.176615
1690686516.255989,1689261544.430883,1.811287,1.378122,-0.205498,-0.017940,0.008516,-156.256184,0.978456,3.240950,5.839211,0.176605
1690686516.264323,1689261544.439248,1.814362,1.383561,-0.205456,-0.017976,0.008558,-156.260944,0.978464,3.240940,5.839206,0.176611
1690686516.281039,1689261544.455878,1.819143,1.387864,-0.205468,-0.018025,0.008586,-156.259338,0.978460,3.240934,5.839219,0.176617
1690686516.290614,1689261544.464444,1.819318,1.379402,-0.205485,-0.018011,0.008513,-156.257558,0.978458,3.240930,5.839215,0.176619
1690686516.297315,1689261544.472457,1.814605,1.377524,-0.205557,-0.017968,0.008504,-156.249196,0.978443,3.240939,5.839208,0.176615
1690686516.306366,1689261544.481100,1.815562,1.390842,-0.205377,-0.017999,0.008619,-156.270039,0.978480,3.240948,5.839202,0.176612
1690686516.314322,1689261544.489488,1.813133,1.372521,-0.205452,-0.017946,0.008466,-156.261574,0.978466,3.240932,5.839192,0.176610
1690686516.322814,1689261544.497761,1.813093,1.377871,-0.205410,-0.017955,0.008512,-156.266458,0.978474,3.240943,5.839183,0.176611
1690686516.339051,1689261544.514216,1.809624,1.371253,-0.205427,-0.017913,0.008462,-156.264598,0.978472,3.240951,5.839186,0.176607
1690686516.347306,1689261544.522506,1.813285,1.378180,-0.205451,-0.017957,0.008514,-156.261626,0.978466,3.240950,5.839191,0.176616
1690686516.355882,1689261544.530872,1.806011,1.376359,-0.205428,-0.017892,0.008512,-156.264505,0.978472,3.240937,5.839199,0.176607
1690686516.364026,1689261544.539130,1.806398,1.374031,-0.205462,-0.017891,0.008491,-156.260568,0.978465,3.240938,5.839196,0.176604
1690686516.372848,1689261544.547545,1.806668,1.384419,-0.205460,-0.017912,0.008579,-156.260529,0.978464,3.240941,5.839211,0.176601
1690686516.389776,1689261544.564295,1.813428,1.385439,-0.205460,-0.017971,0.008575,-156.260414,0.978463,3.240934,5.839227,0.176620
1690686516.397759,1689261544.572606,1.815864,1.387796,-0.205537,-0.017997,0.008590,-156.251336,0.978446,3.240936,5.839212,0.176620
1690686516.406336,1689261544.581211,1.814129,1.391898,-0.205389,-0.017988,0.008630,-156.268594,0.978477,3.240932,5.839215,0.176607
1690686516.414644,1689261544.589449,1.815801,1.380075,-0.205525,-0.017983,0.008524,-156.252926,0.978450,3.240942,5.839216,0.176600
1690686516.422496,1689261544.597493,1.820231,1.388584,-0.205436,-0.018035,0.008590,-156.263099,0.978467,3.240927,5.839213,0.176600
1690686516.431059,1689261544.605933,1.806784,1.381473,-0.205470,-0.017908,0.008553,-156.259422,0.978462,3.240930,5.839189,0.176597
1690686516.448222,1689261544.622518,1.794491,1.374517,-0.205598,-0.017791,0.008514,-156.244718,0.978438,3.240935,5.839167,0.176617
1690686516.455707,1689261544.630776,1.778059,1.365770,-0.205808,-0.017637,0.008465,-156.220614,0.978397,3.240863,5.839118,0.176608
1690686516.464299,1689261544.639187,1.733801,1.357941,-0.206364,-0.017250,0.008468,-156.156297,0.978287,3.240732,5.839059,0.176626
1690686516.472674,1689261544.647535,1.648053,1.349032,-0.206737,-0.016505,0.008540,-156.114036,0.978220,3.240543,5.838962,0.176639
1690686516.489569,1689261544.664201,1.532253,1.350929,-0.207121,-0.015523,0.008760,-156.070662,0.978153,3.240246,5.838849,0.176678
1690686516.498063,1689261544.672547,1.397192,1.363777,-0.207189,-0.014394,0.009113,-156.064496,0.978153,3.239894,5.838672,0.176699
1690686516.505717,1689261544.680942,1.254888,1.353744,-0.207396,-0.013163,0.009283,-156.042417,0.978124,3.239443,5.838431,0.176743
1690686516.513955,1689261544.689200,1.074835,1.309752,-0.207351,-0.011546,0.009234,-156.050761,0.978155,3.238889,5.838068,0.176846
1690686516.522038,1689261544.697474,0.947643,1.276988,-0.207238,-0.010400,0.009186,-156.066026,0.978192,3.238293,5.837701,0.176945
1690686516.539524,1689261544.714590,0.809185,1.245706,-0.206948,-0.009159,0.009173,-156.102095,0.978266,3.237601,5.837348,0.176980
1690686516.547241,1689261544.722689,0.687937,1.215027,-0.206993,-0.008068,0.009130,-156.098553,0.978267,3.236847,5.837003,0.177002
1690686516.556184,1689261544.730874,0.579341,1.249167,-0.207240,-0.007205,0.009616,-156.070639,0.978216,3.235920,5.836681,0.176989
1690686516.564145,1689261544.739214,0.467952,1.292222,-0.207366,-0.006334,0.010184,-156.056954,0.978190,3.234862,5.836321,0.177038
1690686516.572663,1689261544.747542,0.338994,1.354405,-0.207484,-0.005347,0.010948,-156.044298,0.978163,3.233828,5.835969,0.177038
1690686516.589847,1689261544.764561,0.240626,1.387680,-0.207344,-0.004565,0.011411,-156.061709,0.978191,3.232693,5.835574,0.177049
1690686516.598519,1689261544.773139,0.055929,1.404847,-0.206712,-0.003012,0.011894,-156.138056,0.978325,3.231610,5.835060,0.177068
1690686516.606149,1689261544.781075,-0.085976,1.332040,-0.206868,-0.001671,0.011528,-156.121574,0.978299,3.230421,5.834404,0.177062
1690686516.614060,1689261544.789135,-0.266636,1.281814,-0.206848,-0.000037,0.011425,-156.125953,0.978306,3.229131,5.833657,0.177005
1690686516.623021,1689261544.797764,-0.405293,1.261952,-0.206306,0.001189,0.011505,-156.190965,0.978419,3.227821,5.832924,0.177138
1690686516.631110,1689261544.805881,-0.510736,1.183356,-0.207201,0.002221,0.011026,-156.087005,0.978234,3.226377,5.832246,0.177242
1690686516.648540,1689261544.823015,-0.614789,1.175627,-0.207751,0.003117,0.011150,-156.023466,0.978113,3.224693,5.831642,0.177229
1690686516.655718,1689261544.830845,-0.705160,1.252294,-0.207916,0.003747,0.011968,-156.005268,0.978066,3.222930,5.830930,0.177247
1690686516.664294,1689261544.839213,-0.744108,1.253959,-0.208731,0.004067,0.012056,-155.910160,0.977890,3.220917,5.830112,0.177199
1690686516.680756,1689261544.855814,-0.732935,1.299375,-0.208511,0.003891,0.012423,-155.935971,0.977933,3.218593,5.829149,0.177127
1690686516.690048,1689261544.864562,-0.723510,1.269162,-0.208664,0.003864,0.012148,-155.917867,0.977904,3.216197,5.828040,0.177128
1690686516.697578,1689261544.872525,-0.658057,1.203606,-0.208480,0.003427,0.011469,-155.938619,0.977953,3.213712,5.826784,0.177096
1690686516.705523,1689261544.880821,-0.583250,1.145069,-0.207893,0.002901,0.010832,-156.006482,0.978087,3.211016,5.825382,0.177003
1690686516.714000,1689261544.889238,-0.435582,1.105614,-0.207775,0.001714,0.010227,-156.018951,0.978122,3.208248,5.823921,0.176829
1690686516.722587,1689261544.897814,-0.276018,1.105983,-0.207448,0.000354,0.009941,-156.055768,0.978195,3.205236,5.822461,0.176844
1690686516.739408,1689261544.914454,-0.091316,1.058229,-0.207197,-0.001134,0.009199,-156.083474,0.978255,3.202037,5.820995,0.176720
1690686516.747308,1689261544.922607,0.018000,1.130573,-0.207075,-0.002197,0.009620,-156.096644,0.978275,3.198729,5.819509,0.176556
1690686516.755526,1689261544.930866,0.052331,1.150399,-0.206903,-0.002524,0.009727,-156.116430,0.978310,3.195576,5.818089,0.176401
1690686516.764378,1689261544.939191,0.172873,1.149361,-0.206671,-0.003549,0.009501,-156.142385,0.978358,3.192225,5.816663,0.176404
1690686516.772366,1689261544.947517,0.211289,1.150132,-0.206196,-0.003874,0.009441,-156.197528,0.978457,3.188884,5.815272,0.176317
1690686516.789847,1689261544.964457,0.302946,1.087509,-0.206575,-0.004547,0.008739,-156.152479,0.978381,3.185626,5.813770,0.176190
1690686516.797556,1689261544.972498,0.460040,1.115705,-0.206299,-0.005937,0.008698,-156.183112,0.978432,3.182307,5.812274,0.176284
1690686516.806168,1689261544.981104,0.571603,1.023132,-0.206533,-0.006725,0.007705,-156.155074,0.978386,3.178931,5.810735,0.176237
1690686516.814356,1689261544.989261,0.659682,0.976241,-0.206894,-0.007395,0.007143,-156.112360,0.978310,3.175504,5.809195,0.176109
1690686516.822979,1689261544.997783,0.851466,0.991367,-0.206751,-0.009059,0.006927,-156.127068,0.978327,3.172009,5.807589,0.176054
1690686516.839369,1689261545.014240,1.061193,0.977467,-0.207084,-0.010826,0.006426,-156.085976,0.978242,3.168364,5.805945,0.176011
1690686516.848144,1689261545.022544,1.309161,0.998045,-0.206683,-0.012978,0.006158,-156.130044,0.978303,3.164636,5.804217,0.175918
1690686516.856316,1689261545.030873,1.557570,1.016293,-0.206399,-0.015130,0.005869,-156.160246,0.978333,3.160990,5.802553,0.175868
1690686516.863944,1689261545.039111,1.684668,1.056219,-0.206447,-0.016287,0.005980,-156.152361,0.978304,3.157668,5.800915,0.175717
1690686516.872664,1689261545.047568,1.553302,1.212335,-0.207462,-0.015455,0.007534,-156.032610,0.978092,3.154870,5.799804,0.175854
1690686516.881217,1689261545.055911,1.447116,1.147815,-0.207734,-0.014434,0.007172,-156.003196,0.978053,3.152144,5.798546,0.176023
1690686516.897734,1689261545.072557,1.393306,1.179382,-0.207914,-0.014033,0.007536,-155.982317,0.978018,3.149198,5.797304,0.176020
1690686516.906407,1689261545.081217,1.403068,1.150321,-0.207871,-0.014063,0.007271,-155.987664,0.978028,3.146318,5.796061,0.175907
1690686516.914676,1689261545.089829,1.429097,1.186630,-0.207785,-0.014351,0.007535,-155.996856,0.978040,3.143349,5.794748,0.175926
1690686516.922020,1689261545.097444,1.621317,1.068389,-0.207684,-0.015776,0.006178,-156.008071,0.978049,3.140179,5.793107,0.175735
1690686516.930753,1689261545.105886,1.505214,1.000488,-0.207739,-0.014662,0.005809,-156.004073,0.978057,3.137630,5.791946,0.175662
1690686516.948155,1689261545.122528,1.295015,0.942325,-0.208808,-0.012769,0.005680,-155.881934,0.977857,3.135216,5.790885,0.175637
1690686516.955529,1689261545.130946,1.108701,0.961660,-0.208494,-0.011212,0.006189,-155.920413,0.977940,3.132911,5.789838,0.175762
1690686516.964293,1689261545.139228,0.940838,0.901709,-0.208807,-0.009673,0.005980,-155.886132,0.977891,3.130480,5.788613,0.175845
1690686516.972490,1689261545.147552,0.917088,0.898656,-0.208496,-0.009462,0.006000,-155.922823,0.977959,3.127848,5.787514,0.175847
1690686516.980911,1689261545.155866,0.883180,0.891513,-0.209122,-0.009164,0.005995,-155.849805,0.977828,3.125098,5.786310,0.175880
1690686516.998293,1689261545.173182,0.986544,0.933396,-0.209100,-0.010122,0.006164,-155.851031,0.977823,3.122199,5.785050,0.175938
1690686517.007123,1689261545.181081,1.051062,0.971876,-0.208773,-0.010741,0.006378,-155.888316,0.977884,3.119411,5.783782,0.175769
1690686517.014071,1689261545.189228,1.138064,0.983823,-0.208429,-0.011503,0.006325,-155.927570,0.977950,3.116451,5.782496,0.175558
1690686517.031138,1689261545.205912,1.294369,1.096579,-0.208206,-0.013040,0.007006,-155.950474,0.977973,3.113367,5.781343,0.175539
1690686517.031856,1689261545.205970,1.377633,1.157779,-0.208462,-0.013864,0.007373,-155.918632,0.977905,3.110395,5.780038,0.175592
1690686517.047845,1689261545.222539,1.512476,1.195514,-0.208142,-0.015081,0.007454,-155.953756,0.977954,3.107476,5.778782,0.175578
1690686517.055897,1689261545.230859,1.413575,1.227579,-0.208576,-0.014299,0.007901,-155.903775,0.977870,3.104817,5.777741,0.175768
1690686517.064282,1689261545.239207,1.342018,1.217716,-0.208706,-0.013671,0.007946,-155.889642,0.977851,3.102329,5.776686,0.175725
1690686517.072503,1689261545.247563,1.323621,1.190135,-0.209263,-0.013468,0.007736,-155.824953,0.977736,3.099635,5.775444,0.175740
1690686517.089693,1689261545.264576,1.357320,1.153563,-0.208471,-0.013683,0.007374,-155.917816,0.977905,3.096807,5.773939,0.175503
1690686517.097699,1689261545.272641,1.285282,1.024902,-0.208575,-0.012835,0.006406,-155.908279,0.977901,3.094278,5.772678,0.175569
1690686517.105877,1689261545.280955,1.190535,0.998612,-0.208588,-0.011979,0.006354,-155.908179,0.977910,3.091600,5.771488,0.175616
1690686517.113888,1689261545.289354,1.059108,0.951127,-0.208923,-0.010773,0.006185,-155.870772,0.977853,3.089017,5.770335,0.175664
1690686517.122569,1689261545.297533,0.960678,0.977597,-0.208590,-0.009979,0.006594,-155.910571,0.977930,3.086449,5.769129,0.175683
1690686517.139367,1689261545.314444,0.820546,0.946192,-0.208839,-0.008727,0.006579,-155.883167,0.977889,3.083876,5.768107,0.175660
1690686517.147748,1689261545.322497,0.764332,0.985889,-0.208746,-0.008319,0.007021,-155.894219,0.977909,3.081139,5.766954,0.175587
1690686517.155674,1689261545.330837,0.779775,0.998118,-0.209349,-0.008478,0.007092,-155.823333,0.977779,3.078298,5.765860,0.175566
1690686517.164426,1689261545.339169,0.833585,1.081911,-0.208425,-0.009083,0.007717,-155.930241,0.977966,3.075429,5.764609,0.175578
1690686517.172646,1689261545.347473,0.921917,1.075292,-0.208347,-0.009824,0.007500,-155.938448,0.977977,3.072389,5.763250,0.175510
1690686517.181323,1689261545.355865,1.012383,1.071189,-0.207619,-0.010583,0.007309,-156.022852,0.978125,3.069438,5.761940,0.175451
1690686517.197828,1689261545.372562,1.106598,1.079230,-0.207727,-0.011403,0.007205,-156.009047,0.978094,3.066392,5.760538,0.175354
1690686517.206198,1689261545.381100,1.174375,1.080463,-0.207545,-0.011982,0.007095,-156.029538,0.978126,3.063428,5.759181,0.175370
1690686517.222764,1689261545.397547,1.213722,1.111793,-0.207646,-0.012376,0.007289,-156.016885,0.978099,3.060549,5.757854,0.175490
1690686517.226134,1689261545.397602,1.213318,1.117058,-0.207378,-0.012380,0.007338,-156.048154,0.978155,3.057533,5.756607,0.175467
1690686517.241428,1689261545.414234,1.223224,1.148262,-0.207168,-0.012519,0.007589,-156.072237,0.978196,3.054636,5.755386,0.175383
1690686517.248303,1689261545.422552,1.165636,1.152013,-0.206817,-0.012031,0.007730,-156.114029,0.978275,3.051764,5.754095,0.175386
1690686517.256223,1689261545.430863,1.119383,1.124637,-0.207184,-0.011590,0.007576,-156.071973,0.978204,3.049146,5.752979,0.175246
1690686517.264471,1689261545.439647,0.995474,1.127261,-0.206774,-0.010534,0.007827,-156.121439,0.978301,3.046351,5.751773,0.175333
1690686517.281103,1689261545.455852,0.916632,1.092657,-0.206973,-0.009800,0.007672,-156.099311,0.978267,3.043698,5.750618,0.175356
1690686517.289634,1689261545.464398,0.791868,1.081976,-0.207241,-0.008717,0.007804,-156.069417,0.978220,3.041026,5.749504,0.175322
1690686517.297503,1689261545.472527,0.791354,1.051775,-0.207419,-0.008660,0.007546,-156.048875,0.978185,3.038298,5.748199,0.175291
1690686517.305494,1689261545.480776,0.673758,0.999234,-0.207299,-0.007560,0.007311,-156.064612,0.978221,3.035607,5.747017,0.175425
1690686517.314131,1689261545.489199,0.662343,0.975552,-0.207232,-0.007419,0.007130,-156.072668,0.978238,3.032879,5.745707,0.175355
1690686517.322112,1689261545.497536,0.663210,0.999784,-0.206620,-0.007466,0.007340,-156.144153,0.978365,3.029969,5.744395,0.175239
1690686517.339460,1689261545.514426,0.712096,0.988817,-0.206946,-0.007866,0.007156,-156.105627,0.978295,3.027127,5.743104,0.175282
1690686517.347443,1689261545.522507,0.782474,0.996092,-0.206626,-0.008477,0.007093,-156.142334,0.978358,3.024143,5.741764,0.175358
1690686517.356440,1689261545.530836,0.843664,1.012900,-0.206565,-0.009030,0.007127,-156.148717,0.978365,3.021200,5.740603,0.175287
1690686517.363602,1689261545.539185,0.930137,1.098504,-0.206605,-0.009923,0.007701,-156.142202,0.978344,3.018183,5.739356,0.175159
1690686517.372689,1689261545.547539,0.951023,1.174646,-0.206784,-0.010240,0.008312,-156.120265,0.978298,3.015244,5.738257,0.175255
1690686517.381294,1689261545.556295,0.952563,1.194903,-0.206895,-0.010290,0.008481,-156.107030,0.978272,3.012441,5.737168,0.175154
1690686517.397679,1689261545.572525,0.901357,1.227575,-0.207035,-0.009914,0.008851,-156.090892,0.978243,3.009730,5.735983,0.175202
1690686517.406143,1689261545.581120,0.939342,1.246257,-0.207040,-0.010272,0.008941,-156.089628,0.978238,3.006945,5.734801,0.175326
1690686517.415038,1689261545.589872,0.901319,1.213520,-0.207450,-0.009892,0.008726,-156.042398,0.978157,3.004280,5.733524,0.175303
1690686517.430845,1689261545.605917,0.760117,1.086716,-0.207894,-0.008460,0.007896,-155.993184,0.978083,2.999075,5.730994,0.175288
1690686517.449209,1689261545.622530,0.702478,1.051248,-0.207991,-0.007904,0.007697,-155.982834,0.978069,2.996632,5.729777,0.175331
1690686517.455710,1689261545.630842,0.621568,0.997680,-0.208338,-0.007119,0.007385,-155.943412,0.978003,2.994067,5.728532,0.175401
1690686517.464187,1689261545.639184,0.568958,1.018623,-0.208520,-0.006710,0.007658,-155.922446,0.977965,2.991473,5.727345,0.175511
1690686517.472515,1689261545.647527,0.572584,0.982785,-0.208468,-0.006675,0.007346,-155.928754,0.977979,2.988747,5.726101,0.175522
1690686517.489427,1689261545.664253,0.564254,1.001603,-0.208522,-0.006639,0.007521,-155.922358,0.977966,2.985976,5.724861,0.175606
1690686517.497669,1689261545.672616,0.627857,1.040615,-0.208699,-0.007254,0.007737,-155.900702,0.977922,2.983092,5.723678,0.175575
1690686517.506034,1689261545.680836,0.713509,1.071197,-0.208629,-0.008040,0.007842,-155.907764,0.977930,2.980058,5.722379,0.175592
1690686517.514029,1689261545.689125,0.735510,1.066703,-0.208665,-0.008220,0.007764,-155.903354,0.977922,2.977198,5.721185,0.175572
1690686517.522155,1689261545.697544,0.798793,1.067779,-0.208366,-0.008760,0.007660,-155.937648,0.977982,2.974180,5.719868,0.175646
1690686517.539447,1689261545.714446,0.879280,1.130131,-0.208334,-0.009560,0.008046,-155.939895,0.977978,2.971268,5.718625,0.175634
1690686517.547367,1689261545.722460,0.883180,1.128431,-0.208265,-0.009589,0.008025,-155.948007,0.977993,2.968393,5.717294,0.175709
1690686517.555583,1689261545.730870,0.892416,1.155533,-0.208067,-0.009716,0.008242,-155.970826,0.978032,2.965571,5.716035,0.175759
1690686517.564101,1689261545.739206,0.869957,1.156104,-0.207454,-0.009520,0.008293,-156.042906,0.978163,2.962751,5.714698,0.175846
1690686517.572889,1689261545.747756,0.901940,1.094040,-0.207756,-0.009683,0.007703,-156.007747,0.978102,2.960046,5.713351,0.175841
1690686517.580608,1689261545.755788,0.891687,1.021843,-0.208273,-0.009468,0.007100,-155.948050,0.977999,2.957296,5.712082,0.175802
1690686517.598530,1689261545.773237,0.825395,0.947302,-0.208372,-0.008767,0.006584,-155.937783,0.977988,2.954649,5.710911,0.175818
1690686517.605449,1689261545.780785,0.703841,0.930140,-0.208019,-0.007696,0.006661,-155.980455,0.978072,2.951882,5.709741,0.175850
1690686517.614130,1689261545.789216,0.609879,1.005685,-0.207767,-0.007030,0.007478,-156.010278,0.978124,2.949160,5.708552,0.176041
1690686517.622666,1689261545.797637,0.663893,1.006883,-0.208420,-0.007498,0.007386,-155.933298,0.977983,2.946359,5.707347,0.176041
1690686517.630764,1689261545.805876,0.590953,1.031775,-0.208015,-0.006917,0.007734,-155.981243,0.978071,2.943533,5.706095,0.176061
1690686517.648136,1689261545.822557,0.658194,0.975800,-0.208687,-0.007395,0.007129,-155.902297,0.977929,2.940772,5.704911,0.176042
1690686517.655648,1689261545.830882,0.644552,1.036460,-0.208150,-0.007384,0.007675,-155.964915,0.978039,2.937845,5.703602,0.176149
1690686517.664132,1689261545.839204,0.707705,1.013871,-0.208496,-0.007885,0.007365,-155.923821,0.977964,2.935206,5.702408,0.176131
1690686517.672144,1689261545.847442,0.721714,1.028701,-0.208417,-0.008031,0.007467,-155.932893,0.977979,2.932243,5.701025,0.176205
1690686517.681178,1689261545.855862,0.713120,0.995549,-0.208615,-0.007899,0.007198,-155.910032,0.977940,2.929543,5.699800,0.176178
1690686517.697632,1689261545.872598,0.782304,0.935350,-0.209014,-0.008382,0.006554,-155.863053,0.977855,2.926586,5.698422,0.176212
1690686517.705550,1689261545.880762,0.763974,0.983084,-0.208528,-0.008309,0.006999,-155.919852,0.977956,2.923823,5.697129,0.176309
1690686517.714483,1689261545.889257,0.796019,0.953813,-0.209369,-0.008535,0.006684,-155.821163,0.977777,2.920929,5.695880,0.176323
1690686517.723003,1689261545.897795,0.745412,0.996500,-0.209113,-0.008180,0.007143,-155.851353,0.977831,2.918009,5.694685,0.176318
1690686517.738965,1689261545.914170,0.749084,0.994296,-0.209387,-0.008209,0.007115,-155.819206,0.977773,2.915219,5.693504,0.176406
1690686517.747101,1689261545.922506,0.720463,1.008007,-0.209375,-0.007990,0.007284,-155.820773,0.977776,2.912364,5.692301,0.176355
1690686517.755401,1689261545.930867,0.734524,0.994227,-0.209284,-0.008084,0.007142,-155.831402,0.977795,2.909485,5.690998,0.176431
1690686517.763761,1689261545.939188,0.724438,0.981627,-0.209153,-0.007974,0.007054,-155.847019,0.977825,2.906682,5.689830,0.176425
1690686517.772432,1689261545.947570,0.724273,0.996553,-0.209266,-0.008001,0.007181,-155.833572,0.977800,2.903899,5.688570,0.176480
1690686517.789908,1689261545.964433,0.695445,0.997097,-0.209054,-0.007754,0.007240,-155.858688,0.977846,2.901184,5.687350,0.176471
1690686517.797500,1689261545.972457,0.659003,1.038833,-0.209284,-0.007521,0.007660,-155.831769,0.977796,2.898465,5.686168,0.176564
1690686517.806279,1689261545.980884,0.609575,1.032186,-0.209582,-0.007089,0.007692,-155.797438,0.977735,2.895852,5.685063,0.176687
1690686517.814276,1689261545.989217,0.550131,1.089469,-0.208738,-0.006680,0.008295,-155.896617,0.977914,2.893105,5.683811,0.176710
1690686517.823031,1689261545.997780,0.593311,1.108718,-0.209186,-0.007087,0.008378,-155.843517,0.977814,2.890364,5.682593,0.176741
1690686517.830669,1689261546.005895,0.540181,1.030204,-0.209418,-0.006492,0.007803,-155.817384,0.977774,2.887714,5.681327,0.176905
1690686517.847865,1689261546.022519,0.508657,0.987367,-0.210214,-0.006151,0.007490,-155.724650,0.977607,2.885033,5.680152,0.176902
1690686517.855695,1689261546.030856,0.436482,0.978301,-0.210085,-0.005518,0.007546,-155.740539,0.977639,2.882238,5.678936,0.176949
1690686517.864011,1689261546.039221,0.388729,0.992352,-0.209615,-0.005132,0.007756,-155.795955,0.977740,2.879699,5.677776,0.176928
1690686517.872409,1689261546.047575,0.414497,1.028681,-0.210239,-0.005424,0.008015,-155.722413,0.977602,2.876614,5.676590,0.177068
1690686517.889441,1689261546.064361,0.453171,1.058672,-0.209866,-0.005806,0.008203,-155.765613,0.977679,2.873773,5.675374,0.177011
1690686517.897461,1689261546.072608,0.531020,1.080277,-0.209745,-0.006508,0.008245,-155.778839,0.977700,2.870738,5.674107,0.176967
1690686517.906077,1689261546.081097,0.605277,1.132518,-0.209744,-0.007238,0.008555,-155.777827,0.977692,2.867852,5.672825,0.177017
1690686517.914149,1689261546.089263,0.655240,1.127184,-0.209780,-0.007655,0.008417,-155.773009,0.977682,2.864850,5.671445,0.177039
1690686517.921853,1689261546.097490,0.655626,1.155319,-0.209625,-0.007708,0.008658,-155.790965,0.977713,2.862049,5.670224,0.177072
1690686517.930635,1689261546.106130,0.594129,1.175959,-0.209800,-0.007223,0.008945,-155.771068,0.977677,2.859210,5.669026,0.177219
1690686517.947384,1689261546.122566,0.610733,1.221173,-0.209524,-0.007444,0.009303,-155.802844,0.977731,2.856287,5.667696,0.177169
1690686517.955437,1689261546.130897,0.655052,1.193159,-0.209869,-0.007775,0.008980,-155.762067,0.977657,2.853496,5.666413,0.177192
1690686517.964181,1689261546.139487,0.640620,1.183333,-0.209268,-0.007628,0.008927,-155.832740,0.977788,2.850678,5.665116,0.177215
1690686517.972409,1689261546.147812,0.620169,1.118608,-0.209600,-0.007338,0.008410,-155.794608,0.977724,2.847940,5.663839,0.177259
1690686517.980988,1689261546.155881,0.537622,1.122759,-0.209178,-0.006638,0.008599,-155.844862,0.977817,2.845227,5.662655,0.177196
1690686517.997665,1689261546.172584,0.506781,1.081488,-0.209545,-0.006302,0.008301,-155.802489,0.977743,2.842505,5.661438,0.177249
1690686518.006151,1689261546.181136,0.419724,1.093367,-0.209320,-0.005579,0.008563,-155.829749,0.977794,2.839765,5.660323,0.177259
1690686518.014790,1689261546.189490,0.419466,1.119668,-0.209554,-0.005627,0.008786,-155.802126,0.977741,2.836909,5.659141,0.177353
1690686518.022089,1689261546.197524,0.426879,1.169369,-0.209140,-0.005777,0.009199,-155.850315,0.977825,2.834122,5.657998,0.177398
1690686518.039790,1689261546.214505,0.468464,1.188431,-0.209356,-0.006169,0.009285,-155.824412,0.977776,2.831224,5.656736,0.177473
1690686518.047349,1689261546.222416,0.473049,1.162211,-0.209280,-0.006159,0.009053,-155.833444,0.977795,2.828339,5.655384,0.177360
1690686518.055433,1689261546.230778,0.492905,1.177694,-0.208809,-0.006353,0.009152,-155.888274,0.977893,2.825506,5.654074,0.177465
1690686518.064178,1689261546.239239,0.510534,1.210028,-0.208790,-0.006562,0.009396,-155.890045,0.977893,2.822809,5.652848,0.177489
1690686518.073109,1689261546.247783,0.478191,1.199190,-0.208585,-0.006264,0.009364,-155.914569,0.977939,2.819932,5.651489,0.177617
1690686518.089139,1689261546.264186,0.441690,1.177707,-0.209144,-0.005919,0.009243,-155.849547,0.977823,2.817328,5.650363,0.177656
1690686518.097380,1689261546.272613,0.447921,1.186711,-0.208581,-0.005983,0.009312,-155.915496,0.977943,2.814398,5.649098,0.177639
1690686518.106099,1689261546.281126,0.502263,1.166809,-0.209341,-0.006418,0.009039,-155.825866,0.977780,2.811578,5.647862,0.177689
1690686518.114241,1689261546.289223,0.470960,1.214628,-0.209195,-0.006237,0.009505,-155.843011,0.977808,2.808731,5.646738,0.177711
1690686518.122914,1689261546.297950,0.436992,1.142652,-0.209845,-0.005821,0.008949,-155.767757,0.977676,2.806032,5.645537,0.177774
1690686518.130385,1689261546.305855,0.359891,1.186830,-0.209139,-0.005237,0.009471,-155.851002,0.977826,2.803279,5.644376,0.177784
1690686518.147159,1689261546.322455,0.363292,1.155643,-0.209803,-0.005216,0.009195,-155.773333,0.977687,2.800540,5.643045,0.177827
1690686518.155369,1689261546.330847,0.315232,1.156299,-0.209444,-0.004804,0.009290,-155.815929,0.977765,2.797855,5.641768,0.177907
1690686518.164083,1689261546.339451,0.357629,1.104972,-0.210019,-0.005077,0.008772,-155.748397,0.977645,2.795058,5.640513,0.177873
1690686518.171774,1689261546.347486,0.334877,1.108168,-0.209602,-0.004885,0.008843,-155.797430,0.977735,2.792232,5.639121,0.177920
1690686518.189358,1689261546.364461,0.316361,1.086653,-0.210347,-0.004694,0.008690,-155.710447,0.977577,2.789409,5.637856,0.178047
1690686518.197371,1689261546.372592,0.380581,1.149480,-0.209739,-0.005351,0.009111,-155.780744,0.977700,2.786630,5.636558,0.178096
1690686518.205995,1689261546.381118,0.324085,1.108452,-0.210155,-0.004798,0.008862,-155.732773,0.977616,2.783827,5.635251,0.178036
1690686518.214162,1689261546.389259,0.389771,1.156264,-0.209655,-0.005441,0.009152,-155.790447,0.977718,2.780989,5.633994,0.178138
1690686518.222900,1689261546.397842,0.355679,1.127389,-0.210281,-0.005103,0.008965,-155.717587,0.977587,2.778193,5.632779,0.178215
1690686518.230806,1689261546.405922,0.426418,1.142971,-0.210005,-0.005733,0.008970,-155.749058,0.977642,2.775325,5.631482,0.178176
1690686518.247808,1689261546.422564,0.371353,1.148790,-0.210309,-0.005277,0.009119,-155.714017,0.977578,2.772504,5.630332,0.178133
1690686518.255709,1689261546.430886,0.404563,1.195277,-0.210362,-0.005646,0.009454,-155.707102,0.977561,2.769690,5.629123,0.178269
1690686518.264413,1689261546.439232,0.391190,1.213694,-0.210280,-0.005565,0.009636,-155.716797,0.977578,2.766960,5.628066,0.178309
1690686518.272508,1689261546.447542,0.428619,1.229335,-0.210396,-0.005914,0.009700,-155.702723,0.977550,2.764035,5.626807,0.178324
1690686518.280819,1689261546.455884,0.363919,1.179140,-0.210821,-0.005274,0.009389,-155.653869,0.977465,2.761393,5.625587,0.178429
1690686518.297441,1689261546.472553,0.446932,1.192420,-0.210231,-0.006001,0.009353,-155.722049,0.977589,2.758559,5.624269,0.178490
1690686518.306376,1689261546.481256,0.377719,1.179333,-0.210351,-0.005388,0.009368,-155.708783,0.977566,2.755852,5.622873,0.178401
1690686518.313982,1689261546.489259,0.406122,1.164481,-0.210321,-0.005602,0.009189,-155.712072,0.977573,2.753061,5.621572,0.178595
1690686518.322614,1689261546.497759,0.340721,1.153468,-0.210475,-0.005026,0.009214,-155.694886,0.977543,2.750343,5.620345,0.178662
1690686518.330309,1689261546.505948,0.329110,1.171672,-0.210052,-0.004956,0.009393,-155.744500,0.977633,2.747492,5.619151,0.178761
1690686518.347394,1689261546.522619,0.340853,1.215786,-0.210118,-0.005138,0.009747,-155.736332,0.977614,2.744723,5.617962,0.178720
1690686518.355375,1689261546.530999,0.340229,1.241612,-0.210405,-0.005183,0.009967,-155.702583,0.977550,2.741886,5.616793,0.178744
1690686518.363646,1689261546.539236,0.343312,1.229120,-0.210464,-0.005187,0.009855,-155.695645,0.977538,2.739060,5.615503,0.178725
1690686518.372282,1689261546.547790,0.332168,1.203075,-0.210193,-0.005041,0.009655,-155.727768,0.977599,2.736177,5.614322,0.178850
1690686518.381569,1689261546.556221,0.356971,1.242238,-0.210483,-0.005327,0.009942,-155.693264,0.977533,2.733337,5.613027,0.178828
1690686518.397516,1689261546.572570,0.321414,1.201307,-0.210148,-0.004945,0.009659,-155.733140,0.977609,2.730559,5.611793,0.178875
1690686518.406027,1689261546.581117,0.395247,1.222573,-0.209942,-0.005612,0.009707,-155.756335,0.977650,2.727659,5.610500,0.178947
1690686518.414083,1689261546.589297,0.394421,1.216309,-0.210176,-0.005596,0.009653,-155.728920,0.977600,2.724811,5.609233,0.179060
1690686518.422103,1689261546.597510,0.473551,1.250601,-0.210209,-0.006335,0.009800,-155.723956,0.977587,2.721919,5.607954,0.179072
1690686518.430803,1689261546.605914,0.435272,1.250753,-0.210234,-0.006009,0.009872,-155.721481,0.977583,2.719070,5.606568,0.179123
1690686518.448298,1689261546.622534,0.468196,1.265949,-0.209857,-0.006313,0.009943,-155.765181,0.977661,2.716197,5.605303,0.179101
1690686518.455221,1689261546.630800,0.431972,1.286373,-0.210067,-0.006044,0.010183,-155.740819,0.977615,2.713315,5.604072,0.179285
1690686518.463941,1689261546.639207,0.439403,1.312441,-0.210229,-0.006157,0.010390,-155.721653,0.977578,2.710516,5.602921,0.179245
1690686518.472650,1689261546.647538,0.446102,1.302610,-0.210304,-0.006197,0.010294,-155.712871,0.977562,2.707625,5.601622,0.179390
